# message_name [message contents] ipc_timestamp ipc_hostname logger_timestamp
# message formats defined: PARAM SYNC ODOM FLASER RLASER TRUEPOS
# PARAM param_name param_value
# SYNC tagname
# ODOM x y theta tv rv accel
# FLASER num_readings [range_readings] x y theta odom_x odom_y odom_theta
# RLASER num_readings [range_readings] x y theta odom_x odom_y odom_theta
# TRUEPOS true_x true_y true_theta odom_x odom_y odom_theta
PARAM robot_frontlaser_offset 0.0 nohost 0
PARAM robot_rearlaser_offset 0.0 nohost 0
ODOM 4.601393 195.210304 0.000000 0.000000 0.000000 0.000000 976052862.600000 nohost 0.000000
FLASER 180 81.83 22.82 11.39 7.59 5.72 4.56 3.78 3.25 2.85 2.57 2.30 2.09 1.92 1.76 1.64 1.53 1.46 1.35 1.29 1.23 1.17 1.10 1.07 1.02 1.00 0.93 0.89 0.85 0.87 0.84 0.78 0.76 0.73 0.71 0.72 0.67 0.67 0.69 0.68 0.63 0.64 0.63 0.58 0.59 0.55 0.57 0.54 0.52 0.51 0.49 0.50 0.51 0.51 0.50 0.46 0.50 0.49 0.50 0.46 0.45 0.51 0.45 0.43 0.41 0.45 0.45 0.41 0.40 0.46 0.40 0.43 0.44 0.41 0.42 0.43 0.39 0.41 0.40 0.40 0.46 0.41 0.37 0.39 0.36 0.41 0.43 0.46 0.42 0.40 0.43 0.36 0.39 0.36 0.42 0.42 0.41 0.41 0.40 0.39 0.41 0.42 0.39 0.42 0.42 0.37 0.41 0.42 0.41 0.42 0.41 0.43 0.44 0.43 0.44 0.47 0.45 0.47 0.47 0.45 0.47 0.49 0.51 0.46 0.46 0.47 0.49 0.52 0.51 0.54 0.51 0.56 0.55 0.57 0.56 0.58 0.60 0.59 0.57 0.59 0.60 0.60 0.66 0.64 0.65 0.69 0.72 0.77 0.75 0.78 0.79 0.76 0.86 0.89 0.87 0.96 0.96 1.05 1.06 1.09 1.15 1.21 1.27 1.36 1.40 1.52 1.66 1.81 1.91 2.06 2.28 2.53 2.84 3.27 3.81 4.62 81.79 81.83 81.83 81.80 81.82 4.600000 195.200000 0.000000 4.601393 195.210304 0.000000 976052862.600000 nohost 0.000000
ODOM 5.414015 195.214541 0.000000 0.000000 0.000000 0.000000 976052862.700000 nohost 0.000000
FLASER 180 81.83 81.81 81.83 81.81 81.83 81.83 81.82 81.82 81.83 81.83 81.83 81.82 81.83 81.82 81.83 81.79 81.83 81.83 81.83 81.83 81.82 81.83 81.82 81.83 81.82 81.83 81.83 81.83 81.80 81.83 81.83 81.83 81.81 81.80 81.83 81.83 81.81 81.82 81.83 81.82 81.82 81.83 81.82 81.82 81.80 81.82 81.83 81.83 81.83 81.82 81.83 81.82 81.82 81.80 81.80 81.83 81.83 81.83 81.83 81.83 81.82 81.82 81.81 81.83 81.79 81.82 81.83 81.83 81.83 81.83 81.83 81.83 81.83 81.83 81.83 81.83 81.83 81.82 81.80 11.31 10.94 10.71 10.50 10.40 10.28 10.18 10.12 10.07 10.05 10.01 10.01 10.03 10.09 10.11 10.18 10.28 10.39 10.50 10.73 10.94 11.29 81.79 81.83 81.82 81.83 81.83 81.83 81.83 81.79 81.80 81.83 81.83 81.83 81.83 81.81 81.83 81.80 81.82 81.83 81.83 81.83 81.82 81.83 81.83 81.83 81.83 81.80 81.81 81.82 81.80 81.83 81.83 81.82 81.83 81.83 81.83 81.83 81.81 81.83 81.83 81.83 81.83 81.81 81.83 81.83 81.83 81.83 81.83 81.83 81.80 81.81 81.82 81.83 81.82 81.83 81.83 81.82 81.83 81.80 81.83 81.83 81.82 81.81 81.82 81.81 81.82 81.83 81.83 81.81 81.81 81.83 81.83 81.82 81.80 81.81 81.83 81.83 81.81 81.83 81.83 5.424882 195.200000 0.000000 5.414015 195.214541 0.000000 976052862.700000 nohost 0.000000
ODOM 6.285105 195.203229 0.000000 0.000000 0.000000 0.000000 976052862.800000 nohost 0.000000
FLASER 180 81.83 81.83 81.79 81.83 81.82 81.81 81.80 81.83 81.82 81.82 81.82 81.83 81.82 81.83 81.80 81.83 81.83 81.83 81.83 81.82 81.82 81.81 81.82 81.82 81.83 81.82 81.82 81.83 81.83 81.83 81.81 81.82 81.79 81.82 81.83 81.83 81.83 81.83 81.80 81.82 81.83 81.82 81.82 81.83 81.79 81.81 81.83 81.83 81.82 81.83 81.83 81.83 81.83 81.83 81.83 81.83 81.83 81.79 81.83 81.83 81.83 81.82 81.83 81.83 81.83 81.83 81.83 81.83 81.81 81.83 81.83 81.83 81.82 81.83 81.82 81.83 81.83 81.80 81.83 11.51 11.14 10.87 10.68 10.53 10.41 10.32 10.23 10.21 10.17 10.19 10.15 10.21 10.22 10.23 10.31 10.41 10.54 10.69 10.90 11.17 11.52 81.82 81.80 81.83 81.82 81.80 81.83 81.83 81.81 81.81 81.83 81.83 81.82 81.83 81.79 81.81 81.83 81.83 81.83 81.80 81.83 81.83 81.83 81.82 81.83 81.82 81.83 81.81 81.79 81.82 81.83 81.81 81.82 81.83 81.81 81.83 81.83 81.83 81.83 81.83 81.83 81.82 81.78 81.83 81.83 81.83 81.81 81.82 81.83 81.83 81.83 81.83 81.83 81.82 81.83 81.83 81.83 81.78 81.82 81.83 81.81 81.82 81.83 81.83 81.81 81.83 81.81 81.83 81.83 81.83 81.83 81.83 81.82 81.83 81.83 81.83 81.82 81.83 81.83 81.81 6.273415 195.200000 0.000000 6.285105 195.203229 0.000000 976052862.800000 nohost 0.000000
ODOM 7.121404 195.184411 0.000000 0.000000 0.000000 0.000000 976052862.900000 nohost 0.000000
FLASER 180 81.83 81.83 81.82 81.82 81.83 81.79 81.80 81.80 81.83 81.83 81.83 81.83 81.82 81.83 81.82 81.83 81.83 81.81 81.82 81.80 81.83 81.83 81.82 81.83 81.81 81.82 81.82 81.81 81.83 81.83 81.82 81.83 81.83 81.83 81.83 81.83 81.83 81.81 81.83 81.83 81.83 81.83 81.80 81.83 81.83 81.83 81.83 81.83 81.82 81.83 81.83 81.80 81.83 81.83 81.80 81.83 81.83 81.82 81.83 81.80 81.83 81.83 81.83 81.83 81.81 81.83 81.83 81.81 81.82 81.82 81.81 81.82 81.82 81.82 81.83 81.82 81.81 81.83 81.78 11.76 11.33 11.08 10.87 10.71 10.59 10.48 10.43 10.37 10.34 10.31 10.32 10.36 10.36 10.44 10.50 10.59 10.69 10.87 11.07 11.31 11.76 81.79 81.83 81.83 81.81 81.83 81.83 81.82 81.83 81.82 81.83 81.80 81.83 81.83 81.83 81.82 81.82 81.83 81.83 81.83 81.83 81.83 81.83 81.82 81.82 81.79 81.83 81.83 81.83 81.83 81.83 81.83 81.83 81.82 81.82 81.83 81.83 81.82 81.83 81.83 81.79 81.83 81.82 81.83 81.83 81.82 81.83 81.82 81.82 81.82 81.79 81.83 81.83 81.83 81.82 81.80 81.83 81.83 81.82 81.83 81.82 81.79 81.83 81.80 81.80 81.83 81.83 81.83 81.83 81.82 81.81 81.82 81.83 81.82 81.83 81.83 81.83 81.83 81.83 81.82 7.137695 195.200000 0.000000 7.121404 195.184411 0.000000 976052862.900000 nohost 0.000000
ODOM 8.026711 195.198147 0.000000 0.000000 0.000000 0.000000 976052863.000000 nohost 0.000000
FLASER 180 81.83 81.83 81.82 81.83 81.81 81.80 81.83 81.83 81.81 81.82 81.83 81.80 81.80 81.82 81.83 81.79 81.83 81.83 81.83 81.80 81.83 81.83 81.83 81.83 81.83 81.81 81.83 81.83 81.83 81.83 81.83 81.83 81.83 81.83 81.81 81.82 81.83 81.83 81.82 81.83 81.83 81.83 81.83 81.79 81.83 81.83 81.83 81.83 81.83 81.82 81.80 81.83 81.83 81.83 81.81 81.82 81.83 81.83 81.80 81.82 81.83 81.77 81.83 81.83 81.83 81.83 81.81 81.80 81.83 81.80 81.82 81.82 81.83 81.83 81.80 81.83 81.83 81.83 81.82 11.97 11.57 11.25 11.04 10.84 10.74 10.68 10.59 10.56 10.52 10.48 10.48 10.53 10.56 10.56 10.65 10.79 10.90 11.05 11.31 11.52 11.99 81.83 81.82 81.81 81.83 81.81 81.83 81.83 81.82 81.79 81.83 81.82 81.83 81.81 81.82 81.81 81.83 81.83 81.83 81.82 81.80 81.82 81.82 81.81 81.83 81.83 81.83 81.83 81.81 81.77 81.81 81.82 81.83 81.79 81.83 81.83 81.83 81.82 81.83 81.81 81.83 81.82 81.83 81.83 81.82 81.82 81.83 81.83 81.80 81.83 81.83 81.83 81.83 81.83 81.82 81.82 81.83 81.83 81.81 81.83 81.83 81.81 81.81 81.83 81.80 81.83 81.82 81.80 81.80 81.78 81.83 81.83 81.83 81.83 81.83 81.80 81.79 81.83 81.82 81.83 8.025215 195.200000 0.000000 8.026711 195.198147 0.000000 976052863.000000 nohost 0.000000
ODOM 8.922535 195.182730 0.000000 0.000000 0.000000 0.000000 976052863.100000 nohost 0.000000
FLASER 180 81.83 81.83 81.83 81.83 81.83 81.83 81.81 81.83 81.83 81.83 81.81 81.80 81.83 81.80 81.83 81.83 81.83 81.80 81.83 81.83 81.83 81.82 81.81 81.83 81.81 81.83 81.83 81.83 81.83 81.83 81.83 81.83 81.82 81.83 81.83 81.83 81.83 81.83 81.79 81.83 81.83 81.82 81.83 81.83 81.82 81.82 81.83 81.83 81.83 81.83 81.83 81.83 81.79 81.83 81.83 81.83 81.81 81.82 81.81 81.83 81.83 81.82 81.83 81.82 81.80 81.81 81.82 81.83 81.83 81.83 81.83 81.83 81.83 81.83 81.83 81.82 81.81 81.83 81.83 12.27 11.74 11.45 11.23 11.06 10.93 10.85 10.72 10.68 10.65 10.65 10.65 10.68 10.70 10.78 10.85 10.94 11.01 11.21 11.45 11.77 12.23 81.83 81.83 81.83 81.83 81.81 81.83 81.82 81.80 81.80 81.83 81.80 81.81 81.83 81.83 81.83 81.82 81.82 81.83 81.83 81.81 81.83 81.83 81.82 81.83 81.83 81.83 81.81 81.83 81.83 81.80 81.83 81.83 81.83 81.82 81.81 81.83 81.83 81.83 81.80 81.78 81.83 81.83 81.80 81.83 81.83 81.82 81.83 81.83 81.82 81.83 81.80 81.81 81.83 81.81 81.83 81.77 81.83 81.81 81.82 81.83 81.83 81.83 81.79 81.82 81.83 81.82 81.82 81.83 81.82 81.83 81.83 81.83 81.81 81.82 81.83 81.82 81.83 81.83 81.83 8.930738 195.200000 0.000000 8.922535 195.182730 0.000000 976052863.100000 nohost 0.000000
ODOM 9.849384 195.205886 0.000000 0.000000 0.000000 0.000000 976052863.200000 nohost 0.000000
FLASER 180 81.83 81.82 81.82 81.83 81.81 81.83 81.83 81.83 81.83 81.82 81.80 81.82 81.79 81.83 81.83 81.82 81.83 81.82 81.83 81.83 81.83 81.83 81.83 81.83 81.83 81.83 81.83 81.83 81.83 81.81 81.81 81.83 81.83 81.83 81.83 81.83 81.83 81.82 81.83 81.81 81.83 81.82 81.83 81.82 81.83 81.83 81.78 81.83 81.83 81.80 81.83 81.82 81.82 81.83 81.82 81.81 81.82 81.82 81.83 81.83 81.83 81.83 81.83 81.83 81.80 81.83 81.83 81.83 81.82 81.83 81.81 81.83 81.83 81.80 81.83 81.81 81.82 81.83 81.80 12.59 11.93 11.63 11.38 11.24 11.09 11.03 10.92 10.85 10.85 10.80 10.83 10.80 10.91 10.88 10.94 11.10 11.25 11.41 11.63 11.96 12.54 81.83 81.83 81.83 81.83 81.83 81.82 81.83 81.83 81.80 81.82 81.82 81.83 81.83 81.83 81.83 81.82 81.80 81.81 81.81 81.83 81.83 81.83 81.83 81.83 81.82 81.83 81.83 81.82 81.82 81.83 81.83 81.83 81.83 81.82 81.82 81.83 81.83 81.83 81.83 81.82 81.77 81.83 81.80 81.83 81.83 81.83 81.82 81.83 81.83 81.83 81.83 81.82 81.80 81.83 81.83 81.83 81.83 81.78 81.82 81.83 81.81 81.83 81.81 81.79 81.80 81.81 81.83 81.83 81.83 81.82 81.82 81.81 81.83 81.83 81.82 81.83 81.83 81.83 81.80 9.851530 195.200000 0.000000 9.849384 195.205886 0.000000 976052863.200000 nohost 0.000000
ODOM 10.791055 195.205824 0.000000 0.000000 0.000000 0.000000 976052863.300000 nohost 0.000000
FLASER 180 81.82 81.83 81.83 81.83 81.82 81.83 81.82 81.82 81.80 81.83 81.83 81.83 81.80 81.82 81.83 81.82 81.83 81.83 81.82 81.83 81.83 81.83 81.82 81.81 81.79 81.82 81.80 81.82 81.82 81.83 81.79 81.83 81.83 81.80 81.83 81.82 81.83 81.83 81.83 81.83 81.83 81.83 81.83 81.83 81.83 81.83 81.82 81.83 81.82 81.83 81.81 81.83 81.82 81.83 81.83 81.83 81.83 81.82 81.81 81.81 81.83 81.83 81.83 81.80 81.83 81.83 81.83 81.82 81.83 81.83 81.81 81.82 81.82 81.83 81.81 81.83 81.81 81.81 81.81 12.85 12.19 11.86 11.60 11.43 11.28 11.17 11.09 11.01 10.99 10.98 11.01 10.98 11.07 11.08 11.20 11.29 11.44 11.61 11.89 12.17 12.87 81.80 81.83 81.82 81.83 81.83 81.83 81.79 81.81 81.83 81.83 81.82 81.82 81.83 81.83 81.83 81.83 81.83 81.81 81.80 81.81 81.83 81.83 81.81 81.83 81.83 81.82 81.80 81.83 81.83 81.82 81.82 81.83 81.83 81.80 81.83 81.83 81.81 81.81 81.83 81.81 81.83 81.83 81.83 81.83 81.82 81.83 81.83 81.79 81.83 81.83 81.82 81.83 81.81 81.83 81.76 81.82 81.83 81.83 81.83 81.80 81.83 81.83 81.83 81.83 81.83 81.82 81.83 81.83 81.80 81.82 81.83 81.83 81.83 81.82 81.82 81.82 81.83 81.83 81.83 10.793574 195.200000 0.000000 10.791055 195.205824 0.000000 976052863.300000 nohost 0.000000
ODOM 11.747006 195.196225 0.000000 0.000000 0.000000 0.000000 976052863.400000 nohost 0.000000
FLASER 180 81.83 81.82 81.82 81.82 81.82 81.83 81.83 81.83 81.83 81.81 81.78 81.83 81.80 81.83 81.81 81.82 81.79 81.81 81.83 81.83 81.82 81.82 81.83 81.83 81.83 81.83 81.83 81.83 81.83 81.82 81.82 81.81 81.81 81.83 81.81 81.82 81.83 81.83 81.81 81.83 81.83 81.81 81.83 81.83 81.82 81.83 81.82 81.82 81.81 81.82 81.83 81.83 81.83 81.83 81.83 81.80 81.82 81.83 81.80 81.83 81.81 81.83 81.81 81.83 81.83 81.83 81.83 81.83 81.83 81.83 81.81 81.83 81.83 81.83 81.83 81.83 81.83 81.83 81.82 81.83 12.41 12.04 11.80 11.60 11.49 11.32 11.27 11.22 11.18 11.13 11.18 11.19 11.21 11.29 11.35 11.44 11.60 11.81 12.02 12.41 81.80 81.83 81.82 81.79 81.83 81.82 81.83 81.81 81.83 81.83 81.81 81.80 81.83 81.83 81.83 81.81 81.83 81.83 81.83 81.83 81.83 81.83 81.83 81.83 81.83 81.83 81.83 81.83 81.83 81.83 81.83 81.83 81.81 81.81 81.83 81.82 81.81 81.80 81.82 81.83 81.81 81.83 81.83 81.83 81.81 81.83 81.81 81.81 81.83 81.83 81.83 81.82 81.80 81.82 81.83 81.82 81.83 81.80 81.83 81.83 81.81 81.83 81.83 81.83 81.81 81.83 81.82 81.83 81.83 81.83 81.83 81.83 81.83 81.83 81.82 81.80 81.83 81.83 81.83 81.82 11.757682 195.200000 0.000000 11.747006 195.196225 0.000000 976052863.400000 nohost 0.000000
ODOM 12.735220 195.201090 0.000000 0.000000 0.000000 0.000000 976052863.500000 nohost 0.000000
FLASER 180 81.77 81.81 81.83 81.82 81.83 81.83 81.81 81.81 81.83 81.83 81.79 81.83 81.82 81.81 81.83 81.83 81.83 81.83 81.83 81.82 81.80 81.83 81.83 81.83 81.83 81.83 81.80 81.82 81.81 81.83 81.83 81.83 81.83 81.82 81.81 81.83 81.82 81.82 81.81 81.80 81.83 81.82 81.79 81.83 81.83 81.83 81.81 81.83 81.82 81.83 81.81 81.83 81.83 81.83 81.80 81.83 81.83 81.83 81.81 81.80 81.81 81.83 81.80 81.81 81.83 81.83 81.83 81.83 81.83 81.83 81.83 81.82 81.83 81.83 81.82 81.81 81.83 81.82 81.83 81.83 12.63 12.25 11.99 11.80 11.65 11.51 11.42 11.36 11.31 11.33 11.27 11.29 11.39 11.42 11.56 11.62 11.79 11.95 12.20 12.62 81.83 81.83 81.82 81.82 81.83 81.82 81.83 81.82 81.78 81.83 81.83 81.82 81.83 81.83 81.83 81.78 81.83 81.83 81.81 81.81 81.83 81.83 81.82 81.82 81.83 81.83 81.83 81.83 81.83 81.83 81.83 81.82 81.83 81.83 81.82 81.83 81.83 81.83 81.82 81.78 81.83 81.83 81.82 81.81 81.83 81.81 81.83 81.83 81.83 81.83 81.81 81.80 81.82 81.83 81.83 81.82 81.83 81.82 81.83 81.81 81.82 81.83 81.83 81.83 81.83 81.81 81.83 81.79 81.82 81.82 81.82 81.83 81.83 81.83 81.83 81.81 81.83 81.83 81.83 81.83 12.739663 195.200000 0.000000 12.735220 195.201090 0.000000 976052863.500000 nohost 0.000000
ODOM 13.756089 195.193274 0.000000 0.000000 0.000000 0.000000 976052863.600000 nohost 0.000000
FLASER 180 81.83 81.83 81.82 81.83 81.83 81.83 81.83 81.81 81.83 81.83 81.83 81.83 81.83 81.81 81.83 81.83 81.83 81.82 81.83 81.83 81.82 81.81 81.81 81.80 81.83 81.83 81.83 81.82 81.80 81.83 81.83 81.83 81.82 81.83 81.83 81.83 81.83 81.83 81.82 81.82 81.83 81.83 81.83 81.83 81.83 81.81 81.83 81.81 81.83 81.83 81.81 81.82 81.83 81.82 81.83 81.83 81.82 81.83 81.83 81.83 81.83 81.83 81.79 81.81 81.81 81.79 81.83 81.80 81.83 81.83 81.83 81.83 81.83 81.82 81.83 81.83 81.81 81.83 81.81 81.83 12.81 12.38 12.14 11.93 11.78 11.65 11.59 11.53 11.45 11.44 11.43 11.47 11.51 11.57 11.66 11.74 11.91 12.12 12.42 12.81 81.83 81.83 81.82 81.83 81.81 81.83 81.83 81.83 81.83 81.83 81.81 81.80 81.83 81.82 81.82 81.80 81.83 81.83 81.81 81.80 81.81 81.80 81.82 81.83 81.83 81.83 81.83 81.82 81.83 81.82 81.82 81.83 81.81 81.83 81.83 81.82 81.83 81.80 81.83 81.83 81.81 81.83 81.83 81.83 81.83 81.83 81.83 81.83 81.83 81.83 81.82 81.83 81.81 81.81 81.83 81.83 81.83 81.80 81.83 81.83 81.81 81.83 81.80 81.81 81.80 81.83 81.81 81.81 81.83 81.83 81.83 81.82 81.83 81.82 81.82 81.82 81.83 81.81 81.83 81.83 13.742117 195.200000 0.000000 13.756089 195.193274 0.000000 976052863.600000 nohost 0.000000
ODOM 14.769084 195.191668 0.000000 0.000000 0.000000 0.000000 976052863.700000 nohost 0.000000
FLASER 180 81.83 81.81 81.82 81.79 81.83 81.83 81.82 81.79 81.83 81.81 81.83 81.79 81.83 81.79 81.78 81.83 81.82 81.82 81.82 81.83 81.83 81.82 81.83 81.83 81.83 81.79 81.83 81.83 81.82 81.82 81.83 81.83 81.83 81.80 81.83 81.81 81.83 81.83 81.82 81.80 81.83 81.83 81.83 81.83 81.83 81.83 81.83 81.82 81.83 81.83 81.78 81.83 81.80 81.83 81.83 81.82 81.83 81.79 81.82 81.81 81.83 81.81 81.82 81.83 81.83 81.83 81.82 81.82 81.83 81.83 81.83 81.83 81.83 81.83 81.81 81.81 81.81 81.83 81.80 81.83 13.01 12.59 12.28 12.06 11.88 11.83 11.71 11.66 11.66 11.59 11.60 11.61 11.66 11.75 11.83 11.95 12.10 12.27 12.58 13.03 81.83 81.82 81.83 81.80 81.81 81.83 81.81 81.83 81.83 81.83 81.82 81.83 81.83 81.83 81.82 81.83 81.83 81.82 81.79 81.81 81.83 81.83 81.83 81.83 81.83 81.83 81.80 81.82 81.80 81.83 81.83 81.82 81.81 81.81 81.82 81.83 81.83 81.83 81.83 81.83 81.83 81.83 81.81 81.82 81.83 81.83 81.81 81.83 81.81 81.81 81.83 81.83 81.83 81.81 81.81 81.83 81.83 81.82 81.83 81.82 81.83 81.83 81.81 81.82 81.82 81.83 81.82 81.82 81.83 81.83 81.83 81.83 81.82 81.83 81.80 81.82 81.82 81.83 81.83 81.82 14.759211 195.200000 0.000000 14.769084 195.191668 0.000000 976052863.700000 nohost 0.000000
ODOM 15.800124 195.204066 0.000000 0.000000 0.000000 0.000000 976052863.800000 nohost 0.000000
FLASER 180 81.80 81.83 81.83 81.83 81.83 81.83 81.83 81.83 81.81 81.83 81.83 81.81 81.81 81.83 81.83 81.83 81.82 81.83 81.83 81.81 81.83 81.83 81.80 81.82 81.81 81.79 81.82 81.81 81.82 81.83 81.83 81.83 81.83 81.83 81.83 81.83 81.82 81.82 81.83 81.81 81.81 81.83 81.81 81.82 81.82 81.80 81.83 81.82 81.83 81.83 81.82 81.83 81.83 81.83 81.83 81.83 81.82 81.83 81.83 81.81 81.83 81.83 81.81 81.83 81.78 81.83 81.83 81.80 81.83 81.81 81.83 81.82 81.83 81.83 81.81 81.83 81.83 81.78 81.83 81.82 13.16 12.71 12.44 12.19 12.03 11.94 11.81 11.77 11.77 11.67 11.72 11.71 11.74 11.83 11.93 12.05 12.19 12.45 12.70 13.14 81.80 81.82 81.83 81.83 81.83 81.80 81.83 81.83 81.80 81.83 81.83 81.82 81.83 81.83 81.83 81.83 81.83 81.83 81.82 81.80 81.83 81.82 81.83 81.81 81.82 81.80 81.83 81.81 81.81 81.82 81.78 81.82 81.79 81.83 81.83 81.83 81.78 81.83 81.83 81.83 81.82 81.83 81.83 81.83 81.83 81.83 81.83 81.83 81.83 81.83 81.83 81.83 81.83 81.83 81.83 81.83 81.81 81.81 81.83 81.80 81.80 81.83 81.81 81.83 81.83 81.82 81.78 81.83 81.78 81.83 81.82 81.81 81.83 81.82 81.82 81.83 81.82 81.80 81.83 81.81 15.788350 195.200000 0.000000 15.800124 195.204066 0.000000 976052863.800000 nohost 0.000000
ODOM 16.814349 195.197001 0.000000 0.000000 0.000000 0.000000 976052863.900000 nohost 0.000000
FLASER 180 81.82 81.83 81.83 81.83 81.82 81.83 81.80 81.83 81.83 81.83 81.81 81.83 81.83 81.83 81.83 81.81 81.83 81.83 81.83 81.83 81.83 81.83 81.83 81.83 81.81 81.83 81.81 81.83 81.83 81.83 81.83 81.83 81.83 81.82 81.83 81.83 81.83 81.83 81.83 81.83 81.83 81.83 81.83 81.83 81.83 81.83 81.83 81.83 81.83 81.81 81.83 81.83 81.83 81.81 81.82 81.83 81.83 81.83 81.83 81.83 81.82 81.83 81.83 81.83 81.83 81.80 81.83 81.83 81.83 81.83 81.82 81.82 81.83 81.83 81.82 81.83 81.83 81.83 81.83 81.83 13.36 12.86 12.55 12.32 12.17 12.06 11.94 11.89 11.82 11.81 11.84 11.86 11.92 11.97 12.01 12.17 12.35 12.55 12.84 13.36 81.83 81.83 81.83 81.83 81.83 81.83 81.83 81.81 81.83 81.82 81.83 81.82 81.83 81.83 81.83 81.81 81.83 81.82 81.83 81.82 81.81 81.83 81.83 81.83 81.81 81.82 81.83 81.82 81.83 81.83 81.80 81.83 81.83 81.81 81.83 81.83 81.83 81.83 81.83 81.80 81.83 81.82 81.83 81.83 81.83 81.83 81.82 81.83 81.83 81.83 81.83 81.82 81.83 81.80 81.83 81.82 81.83 81.83 81.83 81.83 81.83 81.83 81.82 81.83 81.83 81.81 81.81 81.78 81.83 81.83 81.80 81.83 81.83 81.82 81.83 81.83 81.81 81.83 81.77 81.83 16.810526 195.200000 0.000000 16.814349 195.197001 0.000000 976052863.900000 nohost 0.000000
ODOM 17.835565 195.209956 0.000000 0.000000 0.000000 0.000000 976052864.000000 nohost 0.000000
FLASER 180 81.83 81.83 81.81 81.80 81.80 81.82 81.80 81.82 81.82 81.81 81.83 81.83 81.83 81.82 81.81 81.80 81.83 81.83 81.83 81.81 81.83 81.80 81.82 81.83 81.83 81.83 81.83 81.80 81.82 81.83 81.82 81.83 81.82 81.83 81.82 81.83 81.81 81.81 81.83 81.81 81.82 81.81 81.83 81.83 81.83 81.83 81.81 81.82 81.82 81.82 81.82 81.82 81.83 81.82 81.83 81.83 81.82 81.83 81.82 81.83 81.83 81.82 81.82 81.81 81.83 81.81 81.83 81.83 81.82 81.83 81.83 81.83 81.82 81.83 81.83 81.82 81.82 81.83 81.81 81.81 13.56 12.99 12.68 12.45 12.27 12.18 12.07 12.01 11.96 11.92 11.93 11.96 12.00 12.05 12.18 12.28 12.45 12.69 12.99 13.54 81.80 81.80 81.83 81.83 81.83 81.83 81.83 81.83 81.83 81.82 81.83 81.83 81.82 81.81 81.83 81.83 81.83 81.83 81.80 81.83 81.83 81.81 81.80 81.83 81.83 81.83 81.83 81.81 81.83 81.80 81.82 81.83 81.83 81.83 81.83 81.83 81.83 81.83 81.83 81.83 81.82 81.83 81.83 81.83 81.83 81.82 81.83 81.82 81.81 81.81 81.83 81.83 81.83 81.82 81.83 81.83 81.82 81.83 81.82 81.83 81.81 81.83 81.83 81.82 81.83 81.83 81.83 81.83 81.82 81.83 81.83 81.83 81.80 81.82 81.83 81.81 81.83 81.82 81.83 81.83 17.843363 195.200000 0.000000 17.835565 195.209956 0.000000 976052864.000000 nohost 0.000000
ODOM 18.858890 195.217844 0.000000 0.000000 0.000000 0.000000 976052864.100000 nohost 0.000000
FLASER 180 81.83 81.82 81.81 81.81 81.83 81.82 81.81 81.83 81.82 81.80 81.79 81.81 81.83 81.79 81.83 81.81 81.83 81.81 81.83 81.80 81.83 81.82 81.83 81.83 81.80 81.81 81.83 81.83 81.83 81.83 81.83 81.83 81.83 81.81 81.83 81.79 81.79 81.82 81.80 81.83 81.83 81.83 81.83 81.81 81.83 81.81 81.83 81.82 81.83 81.83 81.82 81.83 81.83 81.83 81.83 81.83 81.82 81.82 81.83 81.81 81.83 81.83 81.83 81.83 81.81 81.83 81.83 81.83 81.79 81.78 81.81 81.82 81.83 81.81 81.83 81.82 81.83 81.83 81.83 81.83 13.74 13.16 12.84 12.56 12.42 12.29 12.22 12.16 12.07 12.09 12.07 12.10 12.14 12.19 12.31 12.40 12.64 12.82 13.15 13.76 81.80 81.83 81.83 81.80 81.83 81.83 81.83 81.82 81.83 81.81 81.83 81.83 81.83 81.83 81.83 81.83 81.83 81.83 81.82 81.83 81.79 81.83 81.78 81.81 81.79 81.80 81.83 81.82 81.83 81.83 81.83 81.83 81.83 81.81 81.83 81.82 81.83 81.82 81.83 81.83 81.83 81.83 81.80 81.80 81.83 81.83 81.83 81.83 81.81 81.83 81.83 81.83 81.83 81.83 81.83 81.83 81.81 81.83 81.83 81.83 81.83 81.83 81.80 81.83 81.79 81.83 81.83 81.82 81.81 81.81 81.83 81.83 81.83 81.81 81.82 81.83 81.81 81.82 81.83 81.83 18.877824 195.200000 0.000000 18.858890 195.217844 0.000000 976052864.100000 nohost 0.000000
ODOM 19.916758 195.199901 0.000000 0.000000 0.000000 0.000000 976052864.200000 nohost 0.000000
FLASER 180 81.83 81.81 81.82 81.83 81.83 81.82 81.80 81.83 81.83 81.83 81.82 81.83 81.82 81.82 81.82 81.82 81.83 81.83 81.81 81.82 81.83 81.83 81.83 81.83 81.83 81.83 81.83 81.83 81.83 81.82 81.83 81.83 81.83 81.83 81.83 81.81 81.82 81.82 81.82 81.83 81.83 81.83 81.83 81.82 81.83 81.83 81.83 81.82 81.83 81.83 81.83 81.83 81.83 81.82 81.82 81.83 81.81 81.82 81.82 81.82 81.83 81.83 81.82 81.83 81.80 81.83 81.81 81.83 81.83 81.83 81.81 81.83 81.80 81.81 81.83 81.80 81.82 81.81 81.83 81.83 13.88 13.31 12.94 12.71 12.51 12.37 12.26 12.22 12.17 12.15 12.17 12.15 12.29 12.32 12.40 12.51 12.72 12.90 13.25 13.88 81.83 81.81 81.83 81.82 81.82 81.83 81.82 81.83 81.80 81.82 81.81 81.83 81.83 81.83 81.83 81.80 81.82 81.82 81.79 81.83 81.80 81.82 81.83 81.83 81.83 81.83 81.78 81.81 81.83 81.82 81.83 81.81 81.83 81.83 81.82 81.81 81.83 81.81 81.83 81.81 81.80 81.83 81.83 81.83 81.83 81.82 81.82 81.83 81.82 81.83 81.83 81.82 81.83 81.82 81.83 81.82 81.83 81.80 81.83 81.83 81.80 81.82 81.82 81.82 81.83 81.80 81.81 81.83 81.83 81.83 81.80 81.82 81.83 81.83 81.83 81.83 81.83 81.83 81.83 81.83 19.925052 195.200000 0.000000 19.916758 195.199901 0.000000 976052864.200000 nohost 0.000000
ODOM 20.962364 195.197018 0.000000 0.000000 0.000000 0.000000 976052864.300000 nohost 0.000000
FLASER 180 81.82 81.83 81.83 81.83 81.83 81.83 81.82 81.83 81.83 81.83 81.83 81.80 81.83 81.83 81.83 81.82 81.80 81.83 81.83 81.82 81.83 81.83 81.83 81.82 81.81 81.82 81.83 81.81 81.83 81.80 81.83 81.83 81.83 81.83 81.83 81.80 81.81 81.83 81.83 81.83 81.83 81.81 81.80 81.83 81.83 81.83 81.81 81.83 81.83 81.81 81.83 81.81 81.83 81.82 81.83 81.81 81.82 81.81 81.80 81.83 81.83 81.82 81.83 81.82 81.83 81.83 81.82 81.83 81.83 81.79 81.83 81.83 81.81 81.82 81.78 81.82 81.83 81.82 81.83 81.81 14.08 13.40 13.05 12.83 12.63 12.50 12.40 12.36 12.27 12.26 12.26 12.29 12.36 12.40 12.51 12.64 12.82 13.07 13.42 14.05 81.83 81.83 81.83 81.83 81.83 81.83 81.83 81.83 81.83 81.83 81.83 81.83 81.83 81.83 81.81 81.83 81.83 81.82 81.82 81.83 81.83 81.83 81.83 81.83 81.83 81.83 81.83 81.81 81.83 81.83 81.80 81.83 81.78 81.83 81.82 81.82 81.83 81.83 81.83 81.81 81.83 81.83 81.79 81.81 81.83 81.82 81.83 81.82 81.79 81.82 81.83 81.82 81.81 81.83 81.82 81.79 81.83 81.83 81.83 81.83 81.83 81.83 81.83 81.83 81.83 81.83 81.81 81.82 81.81 81.83 81.80 81.83 81.83 81.81 81.83 81.82 81.83 81.83 81.82 81.83 20.966582 195.200000 0.000000 20.962364 195.197018 0.000000 976052864.300000 nohost 0.000000
ODOM 22.019421 195.210327 0.000000 0.000000 0.000000 0.000000 976052864.400000 nohost 0.000000
FLASER 180 81.81 81.83 81.83 81.82 81.83 81.82 81.83 81.79 81.83 81.81 81.80 81.79 81.83 81.81 81.81 81.83 81.81 81.83 81.82 81.83 81.83 81.83 81.83 81.83 81.83 81.81 81.83 81.83 81.82 81.83 81.80 81.83 81.80 81.83 81.83 81.83 81.82 81.81 81.81 81.83 81.83 81.83 81.81 81.82 81.80 81.81 81.83 81.83 81.81 81.83 81.81 81.83 81.83 81.83 81.83 81.83 81.83 81.83 81.81 81.83 81.83 81.83 81.79 81.83 81.83 81.83 81.83 81.82 81.83 81.83 81.82 81.80 81.82 81.83 81.83 81.83 81.82 81.83 81.83 81.83 14.26 13.51 13.17 12.92 12.79 12.63 12.52 12.47 12.39 12.35 12.41 12.39 12.45 12.51 12.62 12.73 12.91 13.16 13.54 14.27 81.83 81.83 81.80 81.83 81.83 81.83 81.82 81.83 81.83 81.83 81.83 81.83 81.83 81.80 81.83 81.83 81.83 81.83 81.82 81.83 81.80 81.83 81.83 81.83 81.82 81.83 81.83 81.83 81.83 81.83 81.83 81.82 81.79 81.83 81.83 81.82 81.83 81.83 81.83 81.80 81.83 81.83 81.81 81.83 81.81 81.83 81.83 81.83 81.81 81.83 81.83 81.83 81.83 81.83 81.83 81.83 81.82 81.82 81.83 81.81 81.83 81.78 81.83 81.81 81.81 81.83 81.83 81.78 81.83 81.81 81.81 81.83 81.83 81.82 81.83 81.83 81.83 81.83 81.81 81.83 22.012207 195.200000 0.000000 22.019421 195.210327 0.000000 976052864.400000 nohost 0.000000
ODOM 23.066369 195.188100 0.000000 0.000000 0.000000 0.000000 976052864.500000 nohost 0.000000
FLASER 180 81.81 81.82 81.83 81.82 81.81 81.83 81.83 81.83 81.83 81.80 81.82 81.83 81.83 81.82 81.83 81.83 81.83 81.81 81.81 81.83 81.83 81.80 81.78 81.83 81.83 81.83 81.83 81.81 81.83 81.82 81.80 81.83 81.81 81.83 81.83 81.83 81.81 81.80 81.83 81.82 81.81 81.83 81.82 81.83 81.83 81.83 81.83 81.80 81.83 81.83 81.81 81.83 81.83 81.82 81.82 81.83 81.83 81.83 81.83 81.80 81.83 81.83 81.82 81.78 81.83 81.83 81.80 81.83 81.83 81.82 81.83 81.83 81.79 81.83 81.79 81.83 81.80 81.82 81.82 81.81 14.47 13.66 13.28 13.00 12.83 12.71 12.60 12.51 12.49 12.46 12.52 12.49 12.54 12.58 12.72 12.87 13.03 13.29 13.65 14.48 81.81 81.83 81.83 81.82 81.83 81.83 81.79 81.83 81.80 81.81 81.79 81.83 81.81 81.83 81.81 81.82 81.82 81.83 81.83 81.83 81.82 81.83 81.82 81.83 81.83 81.83 81.83 81.82 81.83 81.83 81.79 81.83 81.83 81.81 81.81 81.81 81.83 81.83 81.80 81.83 81.80 81.81 81.81 81.83 81.83 81.80 81.80 81.82 81.82 81.80 81.81 81.83 81.81 81.83 81.83 81.79 81.83 81.83 81.82 81.83 81.83 81.83 81.83 81.83 81.80 81.83 81.83 81.83 81.83 81.83 81.83 81.83 81.83 81.82 81.83 81.79 81.83 81.79 81.78 81.82 23.067566 195.200000 0.000000 23.066369 195.188100 0.000000 976052864.500000 nohost 0.000000
ODOM 24.107984 195.202677 0.000000 0.000000 0.000000 0.000000 976052864.600000 nohost 0.000000
FLASER 180 81.83 81.83 81.82 81.83 81.82 81.83 81.80 81.83 81.83 81.83 81.83 81.83 81.83 81.81 81.80 81.83 81.83 81.80 81.81 81.83 81.78 81.81 81.83 81.83 81.81 81.81 81.83 81.81 81.82 81.83 81.81 81.79 81.81 81.81 81.80 81.83 81.83 81.83 81.83 81.81 81.83 81.82 81.83 81.80 81.82 81.82 81.82 81.81 81.83 81.79 81.83 81.83 81.82 81.82 81.83 81.80 81.83 81.81 81.79 81.82 81.79 81.83 81.83 81.79 81.78 81.83 81.83 81.80 81.83 81.83 81.83 81.82 81.83 81.82 81.81 81.83 81.83 81.83 81.81 81.83 14.78 13.78 13.38 13.14 12.96 12.84 12.68 12.67 12.62 12.56 12.57 12.56 12.62 12.70 12.80 12.95 13.14 13.41 13.80 14.77 81.80 81.80 81.82 81.83 81.83 81.82 81.81 81.83 81.83 81.78 81.83 81.83 81.83 81.83 81.82 81.83 81.83 81.82 81.83 81.83 81.83 81.82 81.82 81.80 81.82 81.83 81.83 81.83 81.83 81.80 81.83 81.76 81.82 81.83 81.83 81.83 81.83 81.83 81.83 81.81 81.83 81.83 81.83 81.83 81.83 81.82 81.83 81.83 81.83 81.82 81.82 81.82 81.83 81.83 81.81 81.83 81.80 81.83 81.83 81.83 81.83 81.80 81.83 81.83 81.83 81.82 81.81 81.79 81.83 81.83 81.83 81.83 81.83 81.80 81.83 81.83 81.83 81.83 81.81 81.83 24.114483 195.200000 0.000000 24.107984 195.202677 0.000000 976052864.600000 nohost 0.000000
ODOM 25.169303 195.210503 0.000000 0.000000 0.000000 0.000000 976052864.700000 nohost 0.000000
FLASER 180 81.83 81.83 81.83 81.81 81.83 81.83 81.82 81.83 81.80 81.83 81.78 81.81 81.82 81.83 81.79 81.83 81.83 81.82 81.80 81.82 81.83 81.82 81.83 81.83 81.81 81.83 81.82 81.81 81.83 81.82 81.82 81.83 81.83 81.82 81.83 81.82 81.83 81.83 81.83 81.83 81.83 81.82 81.82 81.81 81.83 81.82 81.83 81.82 81.83 81.81 81.80 81.80 81.83 81.83 81.83 81.83 81.83 81.80 81.82 81.83 81.83 81.83 81.83 81.83 81.83 81.82 81.83 81.80 81.83 81.83 81.82 81.83 81.83 81.81 81.83 81.81 81.83 81.83 81.83 81.83 81.83 13.87 13.53 13.22 13.05 12.90 12.79 12.72 12.67 12.60 12.63 12.69 12.72 12.78 12.91 13.04 13.22 13.49 13.90 81.82 81.83 81.82 81.83 81.81 81.83 81.81 81.81 81.80 81.83 81.83 81.83 81.83 81.82 81.83 81.82 81.83 81.80 81.81 81.83 81.83 81.83 81.83 81.83 81.82 81.83 81.83 81.82 81.83 81.83 81.82 81.83 81.83 81.83 81.80 81.83 81.83 81.83 81.83 81.81 81.83 81.82 81.81 81.83 81.83 81.83 81.83 81.83 81.83 81.80 81.83 81.82 81.82 81.81 81.81 81.83 81.83 81.82 81.83 81.83 81.83 81.83 81.83 81.82 81.83 81.82 81.83 81.83 81.82 81.78 81.82 81.83 81.83 81.80 81.83 81.82 81.83 81.83 81.83 81.82 81.83 25.174468 195.200000 0.000000 25.169303 195.210503 0.000000 976052864.700000 nohost 0.000000
ODOM 26.243750 195.210294 0.002222 0.000000 0.000000 0.000000 976052864.800000 nohost 0.000000
FLASER 180 81.82 81.83 81.81 81.83 81.83 81.83 81.83 81.81 81.82 81.83 81.81 81.83 81.83 81.83 81.82 81.83 81.81 81.83 81.83 81.83 81.83 81.83 81.81 81.83 81.83 81.83 81.83 81.81 81.81 81.83 81.83 81.80 81.81 81.83 81.82 81.83 81.83 81.81 81.83 81.82 81.83 81.81 81.83 81.81 81.83 81.79 81.83 81.83 81.81 81.82 81.81 81.83 81.82 81.81 81.83 81.83 81.79 81.83 81.83 81.83 81.81 81.81 81.83 81.83 81.83 81.83 81.81 81.80 81.83 81.83 81.83 81.83 81.83 81.83 81.83 81.83 81.83 81.82 81.83 81.83 14.73 13.94 13.54 13.31 13.12 12.97 12.91 12.82 12.73 12.75 12.73 12.80 12.82 12.92 13.04 13.17 13.35 13.62 14.09 81.83 81.83 81.82 81.82 81.82 81.83 81.78 81.83 81.78 81.83 81.83 81.83 81.83 81.83 81.83 81.83 81.83 81.81 81.81 81.80 81.82 81.80 81.82 81.82 81.83 81.83 81.81 81.82 81.83 81.78 81.78 81.82 81.83 81.83 81.82 81.83 81.81 81.83 81.83 81.79 81.81 81.82 81.83 81.82 81.81 81.82 81.80 81.83 81.81 81.79 81.83 81.80 81.80 81.83 81.81 81.83 81.81 81.83 81.82 81.82 81.83 81.81 81.82 81.83 81.83 81.83 81.83 81.83 81.83 81.83 81.82 81.83 81.83 81.78 81.83 81.83 81.83 81.83 81.83 81.82 81.83 26.230570 195.210000 0.002222 26.243750 195.210294 0.002222 976052864.800000 nohost 0.000000
ODOM 27.282708 195.240580 0.006146 0.000000 0.000000 0.000000 976052864.900000 nohost 0.000000
FLASER 180 81.82 81.81 81.82 81.80 81.83 81.80 81.82 81.82 81.83 81.83 81.82 81.83 81.81 81.79 81.82 81.83 81.83 81.83 81.80 81.78 81.81 81.83 81.83 81.83 81.79 81.83 81.83 81.83 81.82 81.80 81.81 81.81 81.81 81.82 81.79 81.83 81.83 81.82 81.81 81.83 81.83 81.80 81.82 81.83 81.83 81.82 81.79 81.81 81.79 81.82 81.83 81.83 81.83 81.82 81.83 81.83 81.83 81.83 81.82 81.83 81.83 81.82 81.83 81.83 81.83 81.83 81.80 81.80 81.82 81.83 81.81 81.82 81.83 81.83 81.83 81.83 81.82 81.81 81.83 81.80 14.51 13.90 13.58 13.38 13.15 13.01 12.93 12.94 12.87 12.81 12.88 12.91 12.93 13.00 13.17 13.31 13.58 13.89 14.43 81.82 81.83 81.78 81.81 81.79 81.83 81.83 81.82 81.80 81.83 81.83 81.83 81.81 81.83 81.83 81.79 81.83 81.83 81.81 81.83 81.82 81.83 81.83 81.77 81.83 81.81 81.83 81.83 81.80 81.79 81.83 81.82 81.80 81.81 81.83 81.82 81.83 81.83 81.83 81.83 81.83 81.83 81.83 81.80 81.83 81.83 81.79 81.81 81.83 81.83 81.79 81.80 81.81 81.83 81.83 81.83 81.83 81.83 81.79 81.83 81.83 81.83 81.81 81.83 81.83 81.83 81.83 81.82 81.83 81.83 81.82 81.82 81.83 81.78 81.83 81.82 81.83 81.83 81.78 81.83 81.83 27.285043 195.230000 0.006146 27.282708 195.240580 0.006146 976052864.900000 nohost 0.000000
ODOM 28.339683 195.254936 0.011362 0.000000 0.000000 0.000000 976052865.000000 nohost 0.000000
FLASER 180 81.83 81.82 81.82 81.83 81.83 81.83 81.83 81.82 81.83 81.83 81.83 81.79 81.83 81.83 81.81 81.83 81.82 81.83 81.82 81.83 81.83 81.82 81.82 81.83 81.83 81.83 81.83 81.80 81.83 81.83 81.83 81.82 81.83 81.81 81.83 81.83 81.81 81.82 81.83 81.82 81.82 81.83 81.83 81.83 81.83 81.82 81.82 81.83 81.83 81.83 81.83 81.83 81.82 81.83 81.81 81.83 81.80 81.83 81.83 81.80 81.82 81.82 81.80 81.82 81.83 81.83 81.79 81.81 81.83 81.83 81.83 81.83 81.83 81.83 81.83 81.81 81.81 81.78 81.81 81.83 14.32 13.84 13.56 13.36 13.21 13.08 13.02 12.97 12.93 12.91 12.94 13.01 13.04 13.17 13.34 13.51 13.79 14.17 81.79 81.82 81.81 81.82 81.80 81.83 81.83 81.83 81.83 81.81 81.81 81.83 81.83 81.81 81.83 81.83 81.82 81.83 81.83 81.80 81.83 81.83 81.82 81.83 81.83 81.83 81.80 81.83 81.81 81.83 81.82 81.83 81.80 81.83 81.81 81.82 81.81 81.83 81.81 81.83 81.83 81.83 81.81 81.83 81.83 81.81 81.83 81.82 81.83 81.83 81.83 81.83 81.83 81.82 81.82 81.83 81.83 81.80 81.83 81.83 81.83 81.83 81.80 81.83 81.83 81.83 81.83 81.81 81.80 81.83 81.81 81.80 81.83 81.82 81.83 81.80 81.81 81.83 81.83 81.83 81.83 81.80 28.347046 195.260000 0.011362 28.339683 195.254936 0.011362 976052865.000000 nohost 0.000000
ODOM 29.391425 195.287247 0.017582 0.000000 0.000000 0.000000 976052865.100000 nohost 0.000000
FLASER 180 81.83 81.82 81.80 81.82 81.83 81.83 81.83 81.83 81.83 81.83 81.83 81.81 81.82 81.83 81.82 81.83 81.81 81.82 81.81 81.83 81.80 81.81 81.78 81.82 81.81 81.83 81.83 81.83 81.83 81.83 81.83 81.83 81.80 81.83 81.83 81.79 81.83 81.83 81.83 81.82 81.83 81.83 81.81 81.83 81.79 81.83 81.82 81.83 81.77 81.83 81.83 81.82 81.83 81.83 81.83 81.81 81.83 81.83 81.83 81.83 81.83 81.81 81.82 81.83 81.82 81.81 81.83 81.83 81.80 81.83 81.82 81.80 81.83 81.83 81.80 81.83 81.83 81.83 81.83 14.92 14.16 13.79 13.58 13.37 13.22 13.12 13.12 13.05 13.03 13.02 13.05 13.11 13.22 13.34 13.53 13.74 14.07 14.62 81.83 81.81 81.80 81.80 81.81 81.83 81.83 81.82 81.83 81.83 81.83 81.83 81.83 81.83 81.83 81.83 81.82 81.83 81.80 81.83 81.81 81.82 81.83 81.83 81.83 81.83 81.83 81.83 81.83 81.83 81.82 81.83 81.83 81.80 81.83 81.83 81.81 81.83 81.83 81.83 81.83 81.83 81.83 81.81 81.83 81.83 81.82 81.82 81.83 81.83 81.81 81.83 81.81 81.83 81.81 81.83 81.80 81.83 81.83 81.83 81.82 81.83 81.81 81.83 81.82 81.83 81.79 81.82 81.80 81.80 81.83 81.83 81.79 81.83 81.80 81.83 81.83 81.82 81.83 81.83 81.82 81.83 29.403977 195.300000 0.017582 29.391425 195.287247 0.017582 976052865.100000 nohost 0.000000
ODOM 30.472785 195.370522 0.024516 0.000000 0.000000 0.000000 976052865.200000 nohost 0.000000
FLASER 180 81.83 81.83 81.77 81.81 81.83 81.81 81.81 81.83 81.83 81.83 81.82 81.83 81.83 81.82 81.83 81.80 81.77 81.83 81.82 81.79 81.83 81.83 81.80 81.82 81.83 81.81 81.83 81.79 81.82 81.83 81.80 81.83 81.83 81.83 81.83 81.79 81.83 81.80 81.82 81.80 81.83 81.83 81.82 81.81 81.83 81.80 81.83 81.83 81.83 81.83 81.83 81.82 81.81 81.80 81.82 81.82 81.82 81.78 81.80 81.83 81.80 81.83 81.83 81.81 81.82 81.81 81.83 81.83 81.78 81.83 81.83 81.83 81.83 81.83 81.83 81.83 81.82 81.83 81.81 14.53 14.00 13.70 13.49 13.37 13.23 13.16 13.16 13.08 13.08 13.14 13.19 13.25 13.36 13.52 13.70 14.02 14.42 81.83 81.83 81.83 81.83 81.82 81.81 81.82 81.82 81.82 81.81 81.83 81.83 81.83 81.83 81.80 81.83 81.83 81.81 81.83 81.83 81.83 81.83 81.83 81.83 81.82 81.82 81.82 81.82 81.81 81.83 81.83 81.81 81.83 81.82 81.83 81.83 81.81 81.83 81.82 81.83 81.83 81.83 81.79 81.83 81.83 81.83 81.82 81.83 81.83 81.81 81.83 81.83 81.82 81.82 81.83 81.83 81.83 81.83 81.83 81.83 81.83 81.82 81.83 81.82 81.83 81.83 81.83 81.83 81.82 81.80 81.82 81.82 81.81 81.83 81.82 81.82 81.82 81.83 81.79 81.83 81.81 81.83 81.83 30.472786 195.350000 0.024516 30.472785 195.370522 0.024516 976052865.200000 nohost 0.000000
ODOM 31.555088 195.406844 0.032004 0.000000 0.000000 0.000000 976052865.300000 nohost 0.000000
FLASER 180 81.82 81.83 81.82 81.82 81.83 81.83 81.83 81.81 81.81 81.82 81.82 81.79 81.83 81.83 81.82 81.83 81.83 81.83 81.80 81.81 81.83 81.82 81.82 81.83 81.82 81.82 81.83 81.83 81.79 81.83 81.83 81.83 81.81 81.83 81.83 81.83 81.82 81.83 81.80 81.83 81.80 81.83 81.81 81.83 81.83 81.83 81.83 81.83 81.81 81.82 81.82 81.81 81.83 81.83 81.83 81.83 81.83 81.79 81.83 81.83 81.83 81.83 81.83 81.83 81.83 81.82 81.83 81.83 81.83 81.81 81.83 81.81 81.83 81.82 81.83 81.83 81.83 81.83 14.92 14.30 13.93 13.69 13.47 13.37 13.29 13.16 13.16 13.13 13.19 13.21 13.30 13.40 13.54 13.69 13.96 14.37 15.22 81.81 81.83 81.83 81.83 81.83 81.81 81.81 81.83 81.83 81.83 81.83 81.83 81.83 81.83 81.83 81.83 81.82 81.82 81.79 81.83 81.83 81.80 81.82 81.80 81.83 81.83 81.83 81.83 81.83 81.81 81.83 81.80 81.80 81.83 81.82 81.83 81.83 81.82 81.81 81.83 81.83 81.82 81.82 81.83 81.82 81.80 81.83 81.81 81.81 81.81 81.83 81.81 81.82 81.83 81.83 81.83 81.81 81.83 81.83 81.83 81.79 81.83 81.83 81.83 81.79 81.80 81.83 81.81 81.81 81.83 81.83 81.83 81.83 81.83 81.82 81.82 81.83 81.83 81.83 81.83 81.83 81.83 81.82 31.545031 195.410000 0.032004 31.555088 195.406844 0.032004 976052865.300000 nohost 0.000000
ODOM 32.613864 195.482658 0.039975 0.000000 0.000000 0.000000 976052865.400000 nohost 0.000000
FLASER 180 81.80 81.83 81.82 81.83 81.83 81.82 81.83 81.83 81.83 81.80 81.83 81.83 81.81 81.83 81.83 81.83 81.82 81.79 81.83 81.83 81.83 81.82 81.81 81.83 81.83 81.83 81.82 81.83 81.83 81.83 81.78 81.83 81.82 81.83 81.82 81.82 81.83 81.83 81.81 81.83 81.83 81.81 81.80 81.83 81.83 81.83 81.83 81.83 81.81 81.83 81.83 81.83 81.83 81.83 81.83 81.83 81.81 81.83 81.82 81.82 81.83 81.83 81.83 81.80 81.82 81.83 81.83 81.83 81.82 81.83 81.81 81.83 81.83 81.83 81.78 81.83 81.83 81.81 14.51 14.09 13.78 13.64 13.45 13.36 13.30 13.29 13.21 13.29 13.27 13.36 13.44 13.57 13.70 13.98 14.34 14.92 81.83 81.83 81.81 81.81 81.83 81.82 81.81 81.83 81.83 81.79 81.79 81.83 81.79 81.83 81.83 81.81 81.83 81.82 81.83 81.81 81.83 81.83 81.82 81.81 81.83 81.83 81.81 81.83 81.83 81.83 81.83 81.83 81.80 81.81 81.82 81.83 81.83 81.83 81.81 81.81 81.83 81.82 81.81 81.82 81.83 81.83 81.83 81.83 81.82 81.79 81.83 81.83 81.83 81.81 81.78 81.80 81.83 81.82 81.83 81.83 81.82 81.83 81.82 81.83 81.82 81.83 81.83 81.83 81.83 81.83 81.83 81.83 81.83 81.83 81.81 81.81 81.83 81.83 81.80 81.80 81.82 81.83 81.81 81.83 32.610514 195.480000 0.039975 32.613864 195.482658 0.039975 976052865.400000 nohost 0.000000
ODOM 33.686387 195.537900 0.048184 0.000000 0.000000 0.000000 976052865.500000 nohost 0.000000
FLASER 180 81.81 81.83 81.81 81.83 81.81 81.83 81.81 81.83 81.83 81.83 81.83 81.83 81.83 81.83 81.83 81.80 81.83 81.83 81.83 81.83 81.83 81.82 81.83 81.83 81.83 81.83 81.82 81.80 81.82 81.79 81.83 81.83 81.82 81.83 81.81 81.83 81.83 81.81 81.83 81.82 81.82 81.82 81.83 81.83 81.82 81.83 81.83 81.81 81.83 81.83 81.83 81.83 81.82 81.83 81.83 81.83 81.82 81.80 81.83 81.79 81.82 81.82 81.81 81.79 81.83 81.82 81.83 81.80 81.83 81.83 81.80 81.79 81.80 81.81 81.83 81.81 81.83 14.75 14.25 13.97 13.77 13.59 13.47 13.39 13.34 13.30 13.28 13.37 13.41 13.46 13.62 13.78 14.01 14.29 14.81 81.83 81.82 81.83 81.83 81.80 81.83 81.83 81.81 81.80 81.83 81.83 81.83 81.83 81.83 81.83 81.81 81.81 81.83 81.83 81.83 81.83 81.80 81.79 81.82 81.80 81.82 81.83 81.80 81.83 81.81 81.82 81.83 81.82 81.81 81.83 81.81 81.83 81.81 81.83 81.83 81.81 81.83 81.83 81.83 81.82 81.83 81.81 81.83 81.83 81.83 81.81 81.82 81.82 81.83 81.80 81.83 81.82 81.83 81.83 81.83 81.83 81.80 81.81 81.83 81.83 81.83 81.83 81.82 81.82 81.83 81.76 81.83 81.83 81.83 81.83 81.83 81.83 81.82 81.80 81.81 81.83 81.79 81.83 81.83 81.83 33.686351 195.560000 0.048184 33.686387 195.537900 0.048184 976052865.500000 nohost 0.000000
ODOM 34.775722 195.641549 0.056648 0.000000 0.000000 0.000000 976052865.600000 nohost 0.000000
FLASER 180 81.82 81.83 81.83 81.83 81.82 81.81 81.80 81.80 81.83 81.83 81.83 81.83 81.83 81.82 81.83 81.83 81.83 81.83 81.82 81.83 81.82 81.81 81.82 81.78 81.83 81.79 81.83 81.82 81.77 81.83 81.81 81.83 81.83 81.83 81.83 81.83 81.83 81.83 81.83 81.82 81.83 81.83 81.83 81.83 81.83 81.83 81.82 81.83 81.83 81.83 81.83 81.83 81.83 81.82 81.83 81.81 81.83 81.83 81.83 81.82 81.81 81.81 81.83 81.83 81.80 81.82 81.79 81.82 81.83 81.82 81.83 81.83 81.83 81.81 81.82 81.83 15.02 14.41 14.09 13.84 13.68 13.55 13.48 13.44 13.40 13.37 13.40 13.46 13.53 13.65 13.79 14.06 14.32 14.78 81.83 81.80 81.83 81.83 81.83 81.82 81.82 81.83 81.83 81.83 81.83 81.81 81.82 81.80 81.83 81.79 81.80 81.83 81.79 81.83 81.81 81.81 81.83 81.83 81.82 81.83 81.83 81.83 81.83 81.83 81.83 81.83 81.83 81.83 81.79 81.83 81.80 81.83 81.83 81.83 81.83 81.83 81.83 81.83 81.83 81.82 81.82 81.82 81.83 81.82 81.83 81.83 81.82 81.83 81.81 81.82 81.83 81.80 81.83 81.82 81.80 81.83 81.83 81.82 81.83 81.83 81.82 81.81 81.83 81.83 81.82 81.82 81.83 81.83 81.82 81.83 81.83 81.82 81.83 81.82 81.81 81.83 81.82 81.81 81.81 81.81 34.761992 195.650000 0.056648 34.775722 195.641549 0.056648 976052865.600000 nohost 0.000000
ODOM 35.854688 195.729398 0.065329 0.000000 0.000000 0.000000 976052865.700000 nohost 0.000000
FLASER 180 81.82 81.81 81.81 81.80 81.82 81.83 81.77 81.83 81.83 81.83 81.81 81.82 81.83 81.82 81.83 81.80 81.82 81.83 81.83 81.83 81.83 81.83 81.82 81.83 81.83 81.83 81.83 81.83 81.83 81.80 81.82 81.82 81.80 81.83 81.82 81.83 81.83 81.83 81.83 81.82 81.82 81.83 81.78 81.83 81.81 81.83 81.83 81.82 81.83 81.81 81.83 81.80 81.83 81.83 81.82 81.77 81.82 81.83 81.83 81.83 81.81 81.82 81.83 81.83 81.83 81.82 81.79 81.83 81.82 81.81 81.83 81.82 81.81 81.83 81.83 15.31 14.60 14.22 14.00 13.79 13.63 13.56 13.52 13.48 13.45 13.46 13.49 13.61 13.71 13.84 14.05 14.37 14.81 81.80 81.81 81.80 81.83 81.83 81.81 81.83 81.83 81.83 81.82 81.83 81.81 81.83 81.82 81.83 81.82 81.83 81.83 81.83 81.81 81.82 81.81 81.81 81.83 81.83 81.82 81.83 81.83 81.83 81.81 81.81 81.82 81.81 81.83 81.83 81.83 81.83 81.83 81.83 81.83 81.82 81.81 81.82 81.81 81.82 81.81 81.83 81.82 81.83 81.81 81.81 81.83 81.81 81.83 81.83 81.83 81.82 81.82 81.82 81.83 81.82 81.80 81.83 81.83 81.83 81.81 81.83 81.83 81.83 81.82 81.83 81.83 81.83 81.82 81.83 81.81 81.83 81.83 81.82 81.83 81.83 81.83 81.81 81.80 81.80 81.83 81.83 35.835413 195.750000 0.065329 35.854688 195.729398 0.065329 976052865.700000 nohost 0.000000
ODOM 36.914048 195.856300 0.071810 0.000000 0.000000 0.000000 976052865.800000 nohost 0.000000
FLASER 180 81.83 81.83 81.81 81.82 81.83 81.79 81.83 81.83 81.82 81.83 81.83 81.81 81.80 81.83 81.83 81.79 81.82 81.83 81.80 81.78 81.81 81.83 81.82 81.83 81.83 81.82 81.83 81.81 81.82 81.83 81.80 81.83 81.83 81.83 81.83 81.83 81.81 81.83 81.83 81.83 81.83 81.83 81.83 81.83 81.81 81.83 81.81 81.83 81.83 81.83 81.81 81.80 81.81 81.83 81.79 81.83 81.83 81.83 81.83 81.81 81.82 81.81 81.83 81.79 81.81 81.83 81.79 81.83 81.82 81.82 81.81 81.83 81.83 81.80 81.83 14.81 14.36 14.09 13.94 13.78 13.68 13.60 13.55 13.49 13.55 13.57 13.66 13.75 13.88 14.06 14.31 14.66 15.68 81.81 81.83 81.82 81.80 81.81 81.83 81.82 81.83 81.82 81.81 81.82 81.82 81.83 81.83 81.82 81.82 81.83 81.83 81.82 81.83 81.80 81.81 81.83 81.82 81.82 81.82 81.82 81.83 81.83 81.83 81.83 81.83 81.83 81.81 81.83 81.82 81.83 81.81 81.79 81.81 81.80 81.83 81.81 81.82 81.83 81.83 81.77 81.82 81.82 81.83 81.81 81.82 81.83 81.81 81.80 81.83 81.81 81.81 81.82 81.80 81.82 81.83 81.82 81.79 81.83 81.83 81.83 81.80 81.79 81.83 81.83 81.82 81.81 81.80 81.81 81.83 81.83 81.83 81.81 81.83 81.81 81.80 81.83 81.83 81.83 81.82 81.81 36.917232 195.850000 0.071810 36.914048 195.856300 0.071810 976052865.800000 nohost 0.000000
ODOM 38.006421 195.950874 0.076709 0.000000 0.000000 0.000000 976052865.900000 nohost 0.000000
FLASER 180 81.83 81.82 81.83 81.83 81.80 81.83 81.82 81.83 81.83 81.81 81.83 81.83 81.83 81.83 81.82 81.82 81.83 81.83 81.83 81.80 81.80 81.82 81.83 81.82 81.81 81.83 81.82 81.81 81.83 81.83 81.80 81.83 81.81 81.83 81.83 81.83 81.83 81.83 81.83 81.81 81.82 81.83 81.83 81.82 81.83 81.83 81.81 81.82 81.81 81.81 81.83 81.83 81.81 81.83 81.79 81.83 81.80 81.83 81.83 81.82 81.83 81.81 81.77 81.83 81.83 81.80 81.83 81.82 81.83 81.82 81.83 81.83 81.82 81.83 15.19 14.65 14.30 14.08 13.91 13.77 13.68 13.63 13.61 13.57 13.62 13.69 13.79 13.88 14.03 14.33 14.62 15.23 81.83 81.82 81.83 81.80 81.82 81.82 81.83 81.82 81.83 81.83 81.83 81.81 81.83 81.83 81.83 81.83 81.83 81.82 81.83 81.81 81.83 81.83 81.82 81.83 81.83 81.83 81.79 81.83 81.82 81.80 81.83 81.81 81.83 81.83 81.81 81.83 81.83 81.83 81.83 81.81 81.83 81.80 81.82 81.83 81.83 81.83 81.80 81.81 81.83 81.82 81.82 81.83 81.81 81.83 81.81 81.83 81.80 81.83 81.83 81.83 81.83 81.83 81.83 81.82 81.82 81.83 81.83 81.83 81.83 81.83 81.82 81.82 81.83 81.83 81.83 81.83 81.83 81.82 81.83 81.83 81.83 81.81 81.82 81.83 81.80 81.83 81.81 81.83 38.000118 195.950000 0.076709 38.006421 195.950874 0.076709 976052865.900000 nohost 0.000000
ODOM 39.083005 196.047285 0.080264 0.000000 0.000000 0.000000 976052866.000000 nohost 0.000000
FLASER 180 81.83 81.83 81.83 81.83 81.82 81.81 81.83 81.83 81.83 81.83 81.83 81.81 81.83 81.81 81.83 81.83 81.83 81.82 81.83 81.81 81.83 81.83 81.83 81.83 81.82 81.82 81.80 81.82 81.81 81.83 81.81 81.83 81.83 81.83 81.79 81.83 81.82 81.83 81.83 81.82 81.83 81.83 81.83 81.82 81.83 81.83 81.83 81.82 81.81 81.83 81.83 81.83 81.81 81.81 81.81 81.83 81.81 81.83 81.83 81.80 81.83 81.83 81.83 81.83 81.83 81.80 81.82 81.83 81.83 81.82 81.82 81.83 81.80 81.83 14.91 14.49 14.23 14.01 13.92 13.78 13.68 13.66 13.64 13.67 13.72 13.77 13.87 14.04 14.26 14.51 15.00 81.83 81.83 81.83 81.81 81.83 81.80 81.83 81.80 81.83 81.82 81.82 81.83 81.83 81.81 81.83 81.83 81.82 81.83 81.81 81.81 81.79 81.82 81.83 81.83 81.83 81.83 81.83 81.82 81.83 81.83 81.79 81.82 81.83 81.81 81.81 81.82 81.81 81.82 81.81 81.80 81.82 81.82 81.79 81.83 81.83 81.81 81.81 81.82 81.82 81.83 81.82 81.81 81.83 81.83 81.83 81.83 81.83 81.83 81.83 81.83 81.80 81.83 81.83 81.79 81.82 81.83 81.82 81.83 81.83 81.83 81.83 81.83 81.83 81.79 81.83 81.83 81.82 81.83 81.83 81.83 81.83 81.79 81.83 81.80 81.80 81.83 81.81 81.80 81.82 39.092421 196.050000 0.080264 39.083005 196.047285 0.080264 976052866.000000 nohost 0.000000
ODOM 40.184037 196.140667 0.082998 0.000000 0.000000 0.000000 976052866.100000 nohost 0.000000
FLASER 180 81.81 81.83 81.83 81.81 81.83 81.83 81.83 81.82 81.80 81.77 81.82 81.83 81.83 81.83 81.82 81.82 81.83 81.80 81.80 81.83 81.82 81.83 81.79 81.83 81.83 81.81 81.82 81.83 81.83 81.83 81.83 81.83 81.83 81.83 81.83 81.83 81.83 81.81 81.81 81.83 81.83 81.83 81.83 81.83 81.82 81.83 81.81 81.83 81.81 81.83 81.82 81.83 81.83 81.80 81.82 81.82 81.82 81.83 81.83 81.83 81.83 81.83 81.83 81.83 81.83 81.83 81.83 81.82 81.83 81.83 81.83 81.82 81.83 15.33 14.75 14.41 14.18 14.00 13.88 13.82 13.75 13.71 13.74 13.75 13.81 13.93 14.06 14.24 14.45 14.78 15.44 81.79 81.83 81.83 81.83 81.83 81.82 81.82 81.83 81.83 81.81 81.83 81.83 81.81 81.81 81.83 81.82 81.82 81.83 81.83 81.83 81.83 81.83 81.83 81.83 81.81 81.83 81.82 81.82 81.83 81.83 81.81 81.81 81.82 81.83 81.81 81.83 81.81 81.83 81.83 81.83 81.83 81.82 81.83 81.83 81.83 81.83 81.82 81.82 81.83 81.83 81.83 81.79 81.83 81.83 81.83 81.82 81.83 81.83 81.83 81.78 81.82 81.83 81.81 81.82 81.83 81.83 81.79 81.83 81.83 81.83 81.81 81.81 81.83 81.83 81.83 81.83 81.83 81.80 81.83 81.83 81.83 81.82 81.78 81.81 81.83 81.80 81.83 81.78 81.83 40.182226 196.150000 0.082998 40.184037 196.140667 0.082998 976052866.100000 nohost 0.000000
ODOM 41.273202 196.268549 0.085054 0.000000 0.000000 0.000000 976052866.200000 nohost 0.000000
FLASER 180 81.82 81.83 81.83 81.83 81.83 81.82 81.80 81.83 81.82 81.83 81.79 81.83 81.83 81.83 81.83 81.78 81.82 81.83 81.83 81.82 81.81 81.83 81.80 81.83 81.80 81.83 81.83 81.83 81.82 81.83 81.81 81.81 81.80 81.83 81.81 81.83 81.83 81.81 81.83 81.83 81.83 81.78 81.83 81.82 81.83 81.83 81.83 81.83 81.80 81.82 81.77 81.83 81.81 81.83 81.83 81.82 81.81 81.83 81.81 81.83 81.83 81.82 81.82 81.83 81.83 81.82 81.81 81.83 81.82 81.83 81.83 81.83 81.83 15.05 14.64 14.34 14.13 13.99 13.90 13.83 13.81 13.78 13.79 13.86 13.89 14.03 14.18 14.37 14.68 15.11 81.83 81.80 81.83 81.83 81.83 81.83 81.83 81.83 81.83 81.79 81.83 81.82 81.83 81.83 81.82 81.81 81.81 81.81 81.83 81.83 81.83 81.83 81.83 81.83 81.81 81.82 81.83 81.83 81.83 81.83 81.83 81.83 81.79 81.83 81.81 81.79 81.83 81.83 81.79 81.82 81.83 81.78 81.83 81.80 81.81 81.83 81.80 81.81 81.81 81.83 81.83 81.83 81.83 81.81 81.78 81.83 81.83 81.82 81.83 81.83 81.83 81.82 81.83 81.82 81.83 81.82 81.83 81.83 81.83 81.83 81.78 81.83 81.81 81.83 81.83 81.82 81.83 81.83 81.83 81.78 81.83 81.83 81.83 81.80 81.81 81.81 81.83 81.82 81.83 81.83 41.272693 196.250000 0.085054 41.273202 196.268549 0.085054 976052866.200000 nohost 0.000000
ODOM 42.364078 196.345035 0.086636 0.000000 0.000000 0.000000 976052866.300000 nohost 0.000000
FLASER 180 81.79 81.82 81.82 81.83 81.83 81.83 81.83 81.83 81.80 81.81 81.82 81.83 81.83 81.80 81.83 81.83 81.81 81.82 81.82 81.83 81.79 81.83 81.83 81.83 81.83 81.80 81.83 81.83 81.83 81.83 81.83 81.83 81.83 81.81 81.83 81.81 81.83 81.83 81.81 81.81 81.83 81.83 81.83 81.82 81.78 81.83 81.83 81.83 81.83 81.82 81.83 81.82 81.82 81.82 81.83 81.80 81.83 81.83 81.83 81.81 81.83 81.83 81.83 81.82 81.82 81.83 81.83 81.81 81.83 81.82 81.80 81.83 15.66 14.94 14.60 14.37 14.18 14.03 13.94 13.91 13.85 13.88 13.86 13.94 14.03 14.13 14.31 14.56 14.88 15.61 81.82 81.83 81.81 81.83 81.82 81.78 81.83 81.83 81.80 81.83 81.83 81.83 81.83 81.83 81.82 81.83 81.80 81.80 81.83 81.83 81.83 81.82 81.81 81.83 81.83 81.82 81.83 81.82 81.80 81.83 81.83 81.81 81.81 81.83 81.83 81.83 81.81 81.83 81.83 81.83 81.81 81.83 81.80 81.83 81.83 81.80 81.78 81.81 81.83 81.83 81.83 81.83 81.82 81.80 81.83 81.83 81.81 81.82 81.83 81.83 81.82 81.83 81.82 81.83 81.83 81.79 81.83 81.82 81.82 81.83 81.83 81.83 81.83 81.83 81.83 81.83 81.82 81.83 81.83 81.82 81.82 81.83 81.83 81.82 81.83 81.83 81.83 81.81 81.79 81.83 42.361799 196.350000 0.086636 42.364078 196.345035 0.086636 976052866.300000 nohost 0.000000
ODOM 43.426517 196.443106 0.087825 0.000000 0.000000 0.000000 976052866.400000 nohost 0.000000
FLASER 180 81.81 81.79 81.82 81.80 81.81 81.82 81.83 81.83 81.83 81.81 81.83 81.83 81.83 81.80 81.83 81.83 81.83 81.80 81.82 81.83 81.82 81.83 81.82 81.81 81.83 81.83 81.83 81.83 81.83 81.80 81.82 81.83 81.81 81.82 81.83 81.81 81.81 81.82 81.83 81.83 81.81 81.83 81.82 81.80 81.83 81.83 81.83 81.79 81.83 81.83 81.82 81.83 81.83 81.83 81.80 81.83 81.83 81.83 81.83 81.83 81.82 81.82 81.83 81.83 81.83 81.82 81.83 81.78 81.79 81.83 81.83 81.83 15.37 14.86 14.58 14.35 14.19 14.04 13.97 13.94 13.90 13.91 13.96 14.02 14.13 14.31 14.47 14.76 15.18 81.81 81.83 81.83 81.79 81.83 81.83 81.83 81.82 81.83 81.83 81.83 81.83 81.79 81.81 81.83 81.83 81.83 81.83 81.80 81.83 81.80 81.82 81.81 81.82 81.83 81.83 81.80 81.83 81.82 81.81 81.81 81.81 81.80 81.82 81.82 81.81 81.83 81.83 81.83 81.82 81.83 81.83 81.83 81.83 81.83 81.83 81.82 81.83 81.81 81.82 81.82 81.83 81.83 81.83 81.83 81.81 81.83 81.83 81.83 81.83 81.82 81.81 81.81 81.82 81.83 81.82 81.83 81.81 81.83 81.83 81.83 81.81 81.81 81.80 81.83 81.78 81.81 81.83 81.80 81.83 81.83 81.82 81.83 81.82 81.81 81.83 81.83 81.82 81.83 81.83 81.79 43.451338 196.450000 0.087825 43.426517 196.443106 0.087825 976052866.400000 nohost 0.000000
ODOM 44.558485 196.542728 0.088649 0.000000 0.000000 0.000000 976052866.500000 nohost 0.000000
FLASER 180 81.83 81.82 81.83 81.83 81.81 81.82 81.83 81.82 81.83 81.81 81.82 81.83 81.83 81.82 81.81 81.82 81.83 81.83 81.83 81.83 81.83 81.82 81.82 81.83 81.83 81.82 81.83 81.83 81.83 81.82 81.83 81.81 81.83 81.83 81.81 81.83 81.81 81.83 81.83 81.83 81.83 81.83 81.83 81.83 81.83 81.83 81.83 81.83 81.83 81.83 81.82 81.83 81.81 81.83 81.82 81.83 81.81 81.83 81.83 81.80 81.82 81.83 81.82 81.83 81.83 81.83 81.81 81.81 81.83 81.83 81.82 81.83 15.24 14.80 14.53 14.34 14.18 14.08 14.03 13.99 13.98 13.99 14.08 14.10 14.24 14.40 14.65 14.97 15.51 81.83 81.80 81.83 81.83 81.82 81.80 81.83 81.81 81.80 81.81 81.82 81.83 81.81 81.82 81.82 81.83 81.79 81.81 81.82 81.83 81.82 81.83 81.83 81.83 81.82 81.83 81.83 81.83 81.79 81.82 81.80 81.83 81.83 81.78 81.83 81.83 81.82 81.83 81.80 81.83 81.83 81.83 81.83 81.78 81.83 81.80 81.81 81.81 81.81 81.83 81.80 81.82 81.83 81.83 81.83 81.78 81.83 81.83 81.82 81.79 81.83 81.81 81.83 81.83 81.83 81.83 81.82 81.83 81.83 81.83 81.82 81.83 81.83 81.83 81.83 81.80 81.80 81.82 81.83 81.83 81.83 81.83 81.83 81.82 81.82 81.83 81.83 81.83 81.81 81.83 81.83 44.544725 196.550000 0.088649 44.558485 196.542728 0.088649 976052866.500000 nohost 0.000000
ODOM 45.645246 196.676966 0.089110 0.000000 0.000000 0.000000 976052866.600000 nohost 0.000000
FLASER 180 81.80 81.83 81.83 81.83 81.81 81.83 81.81 81.83 81.81 81.79 81.83 81.82 81.81 81.82 81.83 81.83 81.83 81.82 81.81 81.82 81.81 81.78 81.83 81.82 81.81 81.83 81.81 81.83 81.83 81.83 81.83 81.83 81.83 81.83 81.80 81.82 81.82 81.81 81.80 81.83 81.81 81.83 81.83 81.81 81.80 81.83 81.80 81.83 81.83 81.83 81.82 81.82 81.83 81.83 81.83 81.83 81.83 81.83 81.80 81.83 81.83 81.83 81.82 81.83 81.83 81.83 81.82 81.83 81.83 81.79 81.83 15.79 15.10 14.74 14.52 14.30 14.21 14.09 14.07 14.05 14.07 14.09 14.13 14.20 14.35 14.56 14.82 15.22 16.03 81.83 81.82 81.83 81.80 81.81 81.83 81.83 81.83 81.79 81.83 81.83 81.83 81.83 81.82 81.81 81.83 81.82 81.82 81.80 81.83 81.83 81.82 81.83 81.82 81.83 81.80 81.81 81.82 81.82 81.83 81.81 81.81 81.83 81.83 81.82 81.83 81.83 81.83 81.83 81.83 81.81 81.83 81.78 81.80 81.81 81.82 81.83 81.82 81.81 81.83 81.82 81.80 81.82 81.81 81.82 81.83 81.83 81.83 81.82 81.83 81.83 81.82 81.83 81.81 81.83 81.83 81.82 81.82 81.82 81.81 81.83 81.83 81.83 81.83 81.80 81.79 81.79 81.83 81.83 81.83 81.83 81.83 81.83 81.83 81.80 81.83 81.83 81.83 81.83 81.82 81.83 45.646388 196.650000 0.089110 45.645246 196.676966 0.089110 976052866.600000 nohost 0.000000
ODOM 46.757438 196.751175 0.089453 0.000000 0.000000 0.000000 976052866.700000 nohost 0.000000
FLASER 180 81.83 81.82 81.83 81.82 81.83 81.81 81.83 81.81 81.83 81.78 81.83 81.83 81.83 81.80 81.81 81.79 81.82 81.83 81.81 81.83 81.83 81.81 81.82 81.82 81.83 81.81 81.81 81.80 81.83 81.83 81.83 81.83 81.82 81.81 81.83 81.82 81.82 81.83 81.82 81.83 81.83 81.83 81.83 81.83 81.82 81.83 81.83 81.83 81.83 81.83 81.80 81.82 81.79 81.77 81.83 81.82 81.83 81.83 81.83 81.83 81.83 81.82 81.82 81.83 81.83 81.82 81.83 81.83 81.83 81.82 81.83 15.50 15.02 14.75 14.51 14.34 14.24 14.14 14.14 14.10 14.10 14.12 14.19 14.32 14.48 14.71 14.98 15.44 81.81 81.83 81.83 81.82 81.80 81.82 81.82 81.83 81.83 81.83 81.81 81.82 81.83 81.82 81.83 81.82 81.83 81.81 81.82 81.83 81.81 81.83 81.83 81.83 81.83 81.83 81.83 81.83 81.82 81.82 81.83 81.82 81.83 81.83 81.83 81.83 81.83 81.83 81.80 81.80 81.83 81.83 81.81 81.82 81.83 81.82 81.83 81.83 81.82 81.83 81.83 81.82 81.83 81.82 81.83 81.76 81.83 81.83 81.79 81.82 81.83 81.83 81.83 81.83 81.81 81.83 81.81 81.83 81.82 81.82 81.82 81.80 81.82 81.81 81.82 81.83 81.83 81.82 81.82 81.83 81.83 81.83 81.82 81.83 81.83 81.81 81.82 81.83 81.79 81.81 81.82 81.83 46.748269 196.750000 0.089453 46.757438 196.751175 0.089453 976052866.700000 nohost 0.000000
ODOM 47.866925 196.836851 0.089696 0.000000 0.000000 0.000000 976052866.800000 nohost 0.000000
FLASER 180 81.81 81.81 81.82 81.81 81.80 81.83 81.78 81.83 81.83 81.82 81.83 81.83 81.82 81.83 81.83 81.83 81.82 81.83 81.81 81.83 81.83 81.83 81.83 81.83 81.83 81.83 81.83 81.81 81.82 81.82 81.81 81.80 81.83 81.81 81.83 81.83 81.83 81.83 81.81 81.82 81.83 81.83 81.80 81.83 81.83 81.80 81.80 81.83 81.83 81.83 81.83 81.82 81.83 81.83 81.78 81.81 81.83 81.83 81.79 81.82 81.83 81.83 81.81 81.83 81.83 81.83 81.81 81.83 81.83 81.82 81.83 15.40 14.99 14.70 14.49 14.32 14.27 14.17 14.14 14.16 14.13 14.22 14.33 14.42 14.57 14.84 15.16 15.78 81.83 81.82 81.83 81.83 81.83 81.79 81.83 81.81 81.83 81.83 81.80 81.80 81.83 81.83 81.83 81.83 81.83 81.83 81.83 81.83 81.83 81.83 81.83 81.83 81.81 81.80 81.81 81.83 81.83 81.82 81.80 81.83 81.82 81.83 81.83 81.83 81.79 81.81 81.81 81.83 81.83 81.81 81.83 81.83 81.80 81.79 81.83 81.82 81.83 81.83 81.83 81.83 81.83 81.83 81.82 81.83 81.82 81.83 81.83 81.83 81.81 81.83 81.83 81.83 81.83 81.83 81.82 81.83 81.82 81.79 81.83 81.80 81.83 81.81 81.83 81.81 81.83 81.83 81.83 81.83 81.80 81.81 81.79 81.81 81.82 81.81 81.80 81.83 81.82 81.83 81.83 81.83 47.850959 196.850000 0.089696 47.866925 196.836851 0.089696 976052866.800000 nohost 0.000000
ODOM 48.956975 196.954362 0.089817 0.000000 0.000000 0.000000 976052866.900000 nohost 0.000000
FLASER 180 81.83 81.80 81.82 81.83 81.83 81.81 81.83 81.83 81.81 81.83 81.83 81.82 81.80 81.81 81.83 81.83 81.83 81.83 81.79 81.82 81.81 81.83 81.81 81.83 81.82 81.80 81.83 81.80 81.83 81.80 81.83 81.83 81.83 81.83 81.82 81.81 81.80 81.83 81.83 81.83 81.83 81.82 81.83 81.83 81.83 81.82 81.83 81.83 81.83 81.83 81.83 81.83 81.83 81.83 81.83 81.83 81.81 81.83 81.79 81.83 81.83 81.83 81.83 81.83 81.81 81.83 81.83 81.83 81.83 81.81 16.06 15.32 14.91 14.72 14.51 14.36 14.24 14.26 14.19 14.21 14.22 14.28 14.42 14.52 14.72 15.02 15.41 81.83 81.81 81.83 81.82 81.82 81.81 81.83 81.83 81.82 81.83 81.81 81.80 81.83 81.81 81.83 81.83 81.83 81.82 81.82 81.83 81.83 81.83 81.83 81.83 81.83 81.79 81.81 81.82 81.83 81.79 81.83 81.83 81.83 81.83 81.83 81.80 81.83 81.82 81.83 81.82 81.83 81.83 81.83 81.83 81.81 81.83 81.83 81.83 81.82 81.82 81.83 81.83 81.79 81.83 81.80 81.83 81.83 81.82 81.81 81.78 81.83 81.83 81.79 81.83 81.81 81.83 81.83 81.83 81.83 81.83 81.78 81.83 81.82 81.83 81.83 81.83 81.83 81.82 81.83 81.83 81.83 81.83 81.81 81.83 81.83 81.83 81.82 81.83 81.83 81.83 81.83 81.81 81.82 48.956753 196.950000 0.089817 48.956975 196.954362 0.089817 976052866.900000 nohost 0.000000
ODOM 50.077986 197.056055 0.089995 0.000000 0.000000 0.000000 976052867.000000 nohost 0.000000
FLASER 180 81.83 81.83 81.83 81.83 81.82 81.82 81.81 81.83 81.83 81.81 81.83 81.83 81.81 81.83 81.81 81.83 81.78 81.80 81.83 81.83 81.77 81.82 81.83 81.82 81.82 81.83 81.83 81.79 81.83 81.83 81.83 81.78 81.83 81.83 81.80 81.83 81.83 81.83 81.83 81.83 81.82 81.83 81.81 81.83 81.83 81.81 81.83 81.83 81.82 81.83 81.83 81.82 81.83 81.82 81.83 81.83 81.83 81.83 81.83 81.83 81.83 81.83 81.83 81.82 81.83 81.83 81.81 81.83 81.83 81.82 15.74 15.24 14.84 14.62 14.50 14.38 14.29 14.23 14.24 14.22 14.29 14.35 14.45 14.65 14.88 15.18 15.67 81.83 81.83 81.81 81.83 81.83 81.83 81.83 81.80 81.81 81.83 81.81 81.83 81.81 81.83 81.83 81.83 81.81 81.82 81.81 81.83 81.83 81.81 81.83 81.83 81.83 81.83 81.83 81.82 81.82 81.83 81.82 81.82 81.83 81.83 81.83 81.79 81.81 81.81 81.83 81.83 81.83 81.82 81.83 81.81 81.82 81.82 81.83 81.83 81.82 81.83 81.83 81.83 81.83 81.83 81.83 81.83 81.83 81.81 81.82 81.83 81.83 81.83 81.83 81.81 81.83 81.83 81.83 81.82 81.78 81.83 81.83 81.83 81.83 81.83 81.83 81.83 81.83 81.82 81.82 81.83 81.83 81.83 81.80 81.81 81.83 81.83 81.80 81.83 81.83 81.83 81.79 81.80 81.82 50.058238 197.050000 0.089995 50.077986 197.056055 0.089995 976052867.000000 nohost 0.000000
ODOM 51.149746 197.159630 0.090253 0.000000 0.000000 0.000000 976052867.100000 nohost 0.000000
FLASER 180 81.80 81.83 81.80 81.83 81.83 81.83 81.79 81.80 81.83 81.78 81.81 81.82 81.80 81.83 81.83 81.81 81.83 81.83 81.82 81.83 81.82 81.79 81.83 81.83 81.83 81.80 81.82 81.83 81.81 81.83 81.83 81.83 81.83 81.83 81.81 81.83 81.83 81.81 81.80 81.83 81.83 81.83 81.83 81.81 81.82 81.83 81.83 81.83 81.79 81.83 81.81 81.83 81.83 81.83 81.83 81.83 81.81 81.81 81.81 81.83 81.83 81.83 81.83 81.82 81.82 81.82 81.82 81.83 81.83 81.81 15.61 15.18 14.89 14.67 14.51 14.43 14.37 14.30 14.32 14.34 14.39 14.46 14.62 14.79 15.00 15.40 16.02 81.83 81.83 81.80 81.83 81.83 81.83 81.77 81.83 81.80 81.81 81.83 81.83 81.83 81.83 81.82 81.83 81.82 81.83 81.81 81.82 81.83 81.83 81.82 81.80 81.83 81.79 81.83 81.83 81.83 81.83 81.82 81.83 81.82 81.83 81.79 81.83 81.83 81.83 81.83 81.83 81.81 81.79 81.83 81.81 81.80 81.83 81.81 81.83 81.83 81.83 81.83 81.82 81.83 81.83 81.82 81.83 81.82 81.83 81.81 81.82 81.83 81.83 81.83 81.83 81.83 81.83 81.79 81.82 81.83 81.83 81.83 81.83 81.83 81.83 81.83 81.82 81.82 81.82 81.83 81.83 81.81 81.83 81.80 81.83 81.82 81.82 81.83 81.83 81.83 81.82 81.83 81.83 81.83 51.153449 197.150000 0.090253 51.149746 197.159630 0.090253 976052867.100000 nohost 0.000000
ODOM 52.249641 197.263111 0.090319 0.000000 0.000000 0.000000 976052867.200000 nohost 0.000000
