# message_name [message contents] ipc_timestamp ipc_hostname logger_timestamp
# message formats defined: PARAM SYNC ODOM FLASER RLASER TRUEPOS
# PARAM param_name param_value
# SYNC tagname
# ODOM x y theta tv rv accel
# FLASER num_readings [range_readings] x y theta odom_x odom_y odom_theta
# RLASER num_readings [range_readings] x y theta odom_x odom_y odom_theta
# TRUEPOS true_x true_y true_theta odom_x odom_y odom_theta
PARAM robot_frontlaser_offset 0.0 nohost 0
PARAM robot_rearlaser_offset 0.0 nohost 0
ODOM 4.600629 195.207773 0.000000 0.000000 0.000000 0.000000 976052862.600000 nohost 0.000000
FLASER 180 81.79 22.82 11.38 7.62 5.70 4.58 3.79 3.28 2.85 2.51 2.27 2.09 1.90 1.76 1.65 1.55 1.44 1.38 1.26 1.23 1.16 1.10 1.04 1.05 1.00 0.95 0.88 0.84 0.90 0.84 0.84 0.79 0.74 0.72 0.70 0.71 0.68 0.66 0.63 0.66 0.63 0.61 0.63 0.60 0.57 0.54 0.55 0.52 0.54 0.52 0.57 0.50 0.50 0.49 0.50 0.49 0.49 0.49 0.49 0.45 0.45 0.47 0.48 0.46 0.45 0.45 0.43 0.42 0.42 0.43 0.43 0.41 0.41 0.41 0.41 0.41 0.40 0.40 0.41 0.39 0.41 0.39 0.39 0.38 0.41 0.42 0.40 0.39 0.39 0.38 0.40 0.36 0.39 0.39 0.43 0.41 0.40 0.36 0.41 0.41 0.39 0.41 0.38 0.38 0.40 0.39 0.43 0.41 0.41 0.41 0.44 0.44 0.42 0.45 0.46 0.45 0.46 0.46 0.44 0.44 0.48 0.48 0.49 0.47 0.51 0.46 0.49 0.52 0.48 0.50 0.53 0.57 0.54 0.55 0.55 0.58 0.61 0.61 0.58 0.60 0.64 0.69 0.66 0.68 0.71 0.74 0.73 0.76 0.76 0.76 0.82 0.84 0.87 0.89 0.97 0.97 1.02 1.05 1.06 1.17 1.23 1.27 1.36 1.44 1.51 1.64 1.78 1.92 2.07 2.33 2.54 2.86 3.25 3.87 4.57 81.83 81.81 81.83 81.83 81.83 4.600000 195.200000 0.000000 4.600629 195.207773 0.000000 976052862.600000 nohost 0.000000
ODOM 5.409044 195.184538 0.000000 0.000000 0.000000 0.000000 976052862.700000 nohost 0.000000
FLASER 180 81.82 81.83 81.79 81.83 81.82 81.83 81.79 81.82 81.83 81.81 81.80 81.82 81.83 81.80 81.83 81.81 81.81 81.83 81.83 81.81 81.83 81.80 81.83 81.83 81.83 81.81 81.83 81.80 81.81 81.83 81.80 81.80 81.81 81.79 81.82 81.83 81.81 81.81 81.83 81.83 81.83 81.82 81.82 81.83 81.83 81.81 81.83 81.81 81.82 81.83 81.83 81.82 81.80 81.83 81.81 81.83 81.83 81.83 81.82 81.83 81.81 81.81 81.83 81.83 81.83 81.83 81.83 81.81 81.83 81.81 81.83 81.79 81.82 81.83 81.80 81.83 81.78 81.80 81.79 11.32 10.95 10.68 10.51 10.38 10.29 10.15 10.09 10.04 10.02 10.01 10.00 10.01 10.05 10.10 10.20 10.24 10.39 10.54 10.67 10.93 11.29 81.80 81.83 81.82 81.83 81.83 81.83 81.83 81.83 81.83 81.83 81.82 81.83 81.83 81.83 81.83 81.82 81.82 81.81 81.83 81.82 81.81 81.83 81.80 81.83 81.82 81.83 81.83 81.83 81.82 81.83 81.83 81.81 81.83 81.80 81.83 81.83 81.81 81.83 81.83 81.83 81.83 81.83 81.81 81.83 81.83 81.83 81.83 81.83 81.80 81.83 81.83 81.83 81.83 81.83 81.82 81.83 81.83 81.83 81.83 81.83 81.82 81.83 81.83 81.79 81.80 81.83 81.83 81.79 81.82 81.82 81.83 81.83 81.83 81.81 81.83 81.80 81.80 81.78 81.83 5.424882 195.200000 0.000000 5.409044 195.184538 0.000000 976052862.700000 nohost 0.000000
ODOM 6.263344 195.195968 0.000000 0.000000 0.000000 0.000000 976052862.800000 nohost 0.000000
FLASER 180 81.83 81.82 81.83 81.83 81.81 81.83 81.83 81.82 81.83 81.82 81.83 81.82 81.81 81.83 81.83 81.83 81.83 81.83 81.83 81.83 81.83 81.81 81.82 81.82 81.83 81.83 81.83 81.79 81.83 81.83 81.83 81.83 81.83 81.82 81.83 81.83 81.80 81.81 81.80 81.83 81.83 81.81 81.81 81.82 81.83 81.83 81.83 81.83 81.82 81.82 81.83 81.83 81.83 81.83 81.83 81.83 81.82 81.83 81.83 81.82 81.83 81.82 81.83 81.82 81.83 81.83 81.83 81.83 81.83 81.82 81.82 81.83 81.82 81.79 81.82 81.83 81.82 81.83 81.83 11.55 11.12 10.85 10.67 10.55 10.44 10.38 10.25 10.19 10.18 10.14 10.15 10.18 10.20 10.26 10.37 10.41 10.55 10.70 10.87 11.14 11.50 81.83 81.83 81.82 81.81 81.81 81.79 81.83 81.82 81.83 81.79 81.81 81.78 81.80 81.83 81.81 81.82 81.83 81.83 81.81 81.83 81.83 81.75 81.81 81.83 81.83 81.83 81.80 81.83 81.83 81.82 81.80 81.82 81.81 81.83 81.81 81.83 81.83 81.83 81.78 81.81 81.79 81.83 81.83 81.83 81.83 81.83 81.83 81.81 81.80 81.83 81.83 81.82 81.83 81.83 81.83 81.83 81.83 81.81 81.83 81.83 81.83 81.83 81.83 81.83 81.83 81.83 81.83 81.80 81.82 81.81 81.83 81.83 81.83 81.83 81.82 81.83 81.83 81.83 81.83 6.273415 195.200000 0.000000 6.263344 195.195968 0.000000 976052862.800000 nohost 0.000000
ODOM 7.128231 195.211373 0.000000 0.000000 0.000000 0.000000 976052862.900000 nohost 0.000000
FLASER 180 81.81 81.83 81.83 81.81 81.83 81.83 81.83 81.83 81.80 81.82 81.83 81.79 81.82 81.80 81.82 81.83 81.80 81.83 81.83 81.83 81.83 81.83 81.83 81.83 81.82 81.83 81.79 81.83 81.83 81.82 81.83 81.82 81.82 81.83 81.82 81.82 81.83 81.79 81.79 81.83 81.82 81.83 81.83 81.83 81.83 81.83 81.82 81.83 81.83 81.83 81.83 81.83 81.83 81.83 81.81 81.81 81.82 81.83 81.80 81.83 81.83 81.82 81.83 81.83 81.82 81.83 81.83 81.81 81.81 81.83 81.83 81.82 81.83 81.82 81.83 81.82 81.83 81.83 81.83 11.74 11.33 11.04 10.87 10.70 10.60 10.51 10.41 10.35 10.34 10.35 10.33 10.36 10.40 10.40 10.53 10.59 10.71 10.87 11.06 11.35 11.78 81.83 81.83 81.83 81.83 81.81 81.83 81.83 81.82 81.83 81.79 81.82 81.83 81.83 81.83 81.83 81.81 81.83 81.83 81.83 81.82 81.80 81.83 81.83 81.83 81.83 81.81 81.83 81.83 81.80 81.83 81.83 81.83 81.83 81.81 81.83 81.79 81.83 81.83 81.83 81.83 81.82 81.83 81.83 81.82 81.82 81.83 81.83 81.83 81.83 81.83 81.83 81.83 81.82 81.82 81.81 81.83 81.82 81.83 81.83 81.81 81.83 81.83 81.83 81.83 81.83 81.83 81.83 81.80 81.82 81.83 81.82 81.83 81.83 81.83 81.83 81.83 81.83 81.82 81.83 7.137695 195.200000 0.000000 7.128231 195.211373 0.000000 976052862.900000 nohost 0.000000
ODOM 8.005378 195.193360 0.000000 0.000000 0.000000 0.000000 976052863.000000 nohost 0.000000
FLASER 180 81.83 81.80 81.83 81.82 81.83 81.79 81.78 81.83 81.82 81.78 81.83 81.83 81.83 81.83 81.83 81.83 81.83 81.83 81.82 81.82 81.82 81.81 81.83 81.83 81.83 81.83 81.83 81.83 81.81 81.79 81.80 81.82 81.82 81.81 81.83 81.83 81.79 81.83 81.83 81.83 81.82 81.82 81.83 81.83 81.83 81.83 81.83 81.83 81.82 81.83 81.83 81.80 81.81 81.80 81.83 81.80 81.82 81.83 81.83 81.83 81.81 81.83 81.82 81.83 81.83 81.81 81.83 81.82 81.82 81.82 81.81 81.81 81.81 81.83 81.83 81.79 81.83 81.83 81.83 12.01 11.54 11.27 11.02 10.87 10.74 10.65 10.59 10.51 10.48 10.50 10.53 10.52 10.53 10.58 10.67 10.81 10.89 11.05 11.24 11.55 12.01 81.82 81.81 81.83 81.81 81.83 81.82 81.83 81.83 81.83 81.83 81.83 81.83 81.83 81.81 81.81 81.81 81.82 81.80 81.83 81.82 81.81 81.80 81.79 81.82 81.82 81.81 81.83 81.83 81.82 81.82 81.83 81.80 81.83 81.82 81.83 81.83 81.83 81.83 81.83 81.83 81.83 81.83 81.83 81.83 81.83 81.80 81.83 81.82 81.83 81.83 81.83 81.83 81.81 81.81 81.83 81.83 81.83 81.83 81.83 81.83 81.83 81.83 81.83 81.82 81.81 81.80 81.83 81.83 81.83 81.82 81.83 81.82 81.83 81.81 81.83 81.79 81.83 81.80 81.82 8.025215 195.200000 0.000000 8.005378 195.193360 0.000000 976052863.000000 nohost 0.000000
ODOM 8.933106 195.212812 0.000000 0.000000 0.000000 0.000000 976052863.100000 nohost 0.000000
FLASER 180 81.80 81.82 81.83 81.80 81.83 81.82 81.83 81.83 81.83 81.82 81.83 81.83 81.83 81.82 81.82 81.82 81.83 81.82 81.83 81.82 81.83 81.83 81.82 81.83 81.83 81.79 81.83 81.83 81.83 81.83 81.82 81.83 81.83 81.83 81.83 81.83 81.83 81.83 81.83 81.82 81.83 81.81 81.81 81.83 81.83 81.81 81.83 81.83 81.83 81.83 81.78 81.81 81.83 81.82 81.83 81.83 81.82 81.83 81.83 81.80 81.83 81.80 81.83 81.83 81.83 81.83 81.83 81.83 81.83 81.83 81.79 81.82 81.83 81.81 81.83 81.83 81.82 81.81 81.83 12.24 11.75 11.48 11.22 11.04 10.91 10.83 10.74 10.69 10.68 10.67 10.67 10.68 10.70 10.77 10.82 10.92 11.03 11.25 11.45 11.78 12.26 81.83 81.83 81.83 81.83 81.83 81.80 81.82 81.81 81.81 81.80 81.80 81.83 81.83 81.83 81.79 81.82 81.83 81.78 81.82 81.83 81.83 81.82 81.81 81.80 81.81 81.83 81.83 81.81 81.83 81.83 81.83 81.80 81.83 81.83 81.81 81.83 81.83 81.79 81.82 81.83 81.83 81.83 81.83 81.83 81.83 81.82 81.82 81.82 81.83 81.83 81.83 81.80 81.80 81.83 81.80 81.81 81.83 81.83 81.81 81.83 81.83 81.80 81.82 81.81 81.82 81.83 81.83 81.81 81.82 81.79 81.83 81.83 81.83 81.80 81.83 81.83 81.83 81.82 81.83 8.930738 195.200000 0.000000 8.933106 195.212812 0.000000 976052863.100000 nohost 0.000000
ODOM 9.833961 195.209250 0.000000 0.000000 0.000000 0.000000 976052863.200000 nohost 0.000000
FLASER 180 81.83 81.83 81.83 81.83 81.83 81.82 81.83 81.83 81.83 81.82 81.82 81.82 81.83 81.83 81.83 81.83 81.83 81.81 81.83 81.81 81.81 81.81 81.82 81.83 81.81 81.82 81.82 81.83 81.83 81.83 81.83 81.83 81.81 81.83 81.81 81.83 81.83 81.81 81.82 81.81 81.83 81.83 81.81 81.83 81.83 81.79 81.83 81.83 81.83 81.81 81.83 81.79 81.83 81.83 81.83 81.83 81.83 81.83 81.80 81.81 81.83 81.83 81.80 81.83 81.82 81.83 81.83 81.83 81.83 81.79 81.79 81.83 81.83 81.83 81.83 81.83 81.80 81.83 81.83 12.55 11.95 11.63 11.42 11.26 11.11 10.97 10.92 10.90 10.87 10.79 10.86 10.83 10.88 10.94 11.01 11.14 11.24 11.39 11.65 11.97 12.56 81.83 81.83 81.83 81.83 81.83 81.82 81.83 81.81 81.83 81.83 81.83 81.83 81.83 81.83 81.83 81.83 81.83 81.83 81.80 81.83 81.83 81.80 81.83 81.83 81.83 81.80 81.83 81.83 81.82 81.83 81.83 81.83 81.83 81.83 81.83 81.82 81.83 81.82 81.83 81.83 81.83 81.83 81.81 81.83 81.83 81.82 81.83 81.82 81.80 81.82 81.83 81.83 81.83 81.82 81.83 81.83 81.81 81.81 81.79 81.83 81.78 81.80 81.83 81.80 81.82 81.83 81.83 81.82 81.78 81.83 81.83 81.83 81.82 81.83 81.83 81.83 81.83 81.80 81.81 9.851530 195.200000 0.000000 9.833961 195.209250 0.000000 976052863.200000 nohost 0.000000
ODOM 10.785834 195.201069 0.000000 0.000000 0.000000 0.000000 976052863.300000 nohost 0.000000
FLASER 180 81.83 81.80 81.83 81.83 81.82 81.83 81.83 81.83 81.79 81.82 81.80 81.78 81.83 81.83 81.83 81.83 81.81 81.82 81.81 81.83 81.83 81.83 81.83 81.83 81.83 81.83 81.82 81.83 81.82 81.82 81.81 81.83 81.83 81.83 81.82 81.83 81.83 81.83 81.83 81.79 81.83 81.83 81.82 81.83 81.82 81.81 81.83 81.83 81.82 81.83 81.83 81.83 81.82 81.83 81.83 81.81 81.82 81.81 81.83 81.80 81.82 81.83 81.83 81.82 81.83 81.83 81.82 81.83 81.83 81.83 81.83 81.83 81.83 81.83 81.82 81.82 81.83 81.82 81.83 12.90 12.18 11.83 11.60 11.41 11.29 11.20 11.11 11.03 11.03 10.99 10.98 11.01 11.04 11.08 11.16 11.28 11.43 11.55 11.84 12.17 12.86 81.81 81.81 81.83 81.81 81.83 81.82 81.83 81.83 81.83 81.82 81.83 81.83 81.78 81.83 81.83 81.82 81.83 81.83 81.81 81.83 81.83 81.78 81.81 81.83 81.82 81.79 81.81 81.83 81.83 81.83 81.81 81.83 81.83 81.82 81.82 81.80 81.83 81.83 81.81 81.83 81.81 81.79 81.83 81.81 81.82 81.83 81.80 81.83 81.82 81.83 81.82 81.81 81.81 81.79 81.83 81.83 81.83 81.83 81.83 81.83 81.83 81.83 81.81 81.80 81.83 81.76 81.79 81.83 81.83 81.82 81.80 81.81 81.81 81.82 81.83 81.83 81.82 81.83 81.83 10.793574 195.200000 0.000000 10.785834 195.201069 0.000000 976052863.300000 nohost 0.000000
ODOM 11.766715 195.202787 0.000000 0.000000 0.000000 0.000000 976052863.400000 nohost 0.000000
FLASER 180 81.83 81.83 81.82 81.83 81.83 81.83 81.83 81.83 81.83 81.80 81.83 81.83 81.81 81.83 81.79 81.83 81.83 81.83 81.83 81.81 81.83 81.82 81.83 81.82 81.82 81.83 81.81 81.83 81.83 81.82 81.83 81.82 81.83 81.83 81.82 81.81 81.83 81.83 81.83 81.83 81.79 81.83 81.82 81.81 81.83 81.83 81.82 81.83 81.83 81.83 81.83 81.83 81.80 81.83 81.83 81.81 81.83 81.83 81.83 81.83 81.81 81.83 81.82 81.83 81.78 81.83 81.83 81.83 81.83 81.82 81.83 81.83 81.81 81.83 81.83 81.83 81.82 81.82 81.83 81.83 12.40 12.04 11.76 11.64 11.44 11.41 11.29 11.23 11.17 11.16 11.16 11.17 11.20 11.23 11.31 11.46 11.59 11.78 12.02 12.42 81.83 81.81 81.82 81.83 81.82 81.83 81.83 81.83 81.82 81.83 81.83 81.81 81.83 81.83 81.82 81.79 81.80 81.81 81.83 81.83 81.82 81.82 81.83 81.81 81.83 81.83 81.83 81.82 81.83 81.83 81.83 81.83 81.82 81.82 81.83 81.83 81.83 81.79 81.83 81.83 81.83 81.83 81.83 81.82 81.83 81.83 81.83 81.81 81.83 81.79 81.80 81.82 81.80 81.83 81.80 81.83 81.83 81.83 81.81 81.83 81.82 81.83 81.81 81.83 81.83 81.80 81.80 81.83 81.81 81.83 81.83 81.83 81.81 81.81 81.83 81.83 81.81 81.83 81.83 81.83 11.757682 195.200000 0.000000 11.766715 195.202787 0.000000 976052863.400000 nohost 0.000000
ODOM 12.736956 195.191451 0.000000 0.000000 0.000000 0.000000 976052863.500000 nohost 0.000000
FLASER 180 81.83 81.80 81.83 81.83 81.83 81.82 81.83 81.83 81.81 81.82 81.83 81.83 81.81 81.83 81.83 81.83 81.80 81.83 81.83 81.82 81.83 81.83 81.83 81.83 81.82 81.83 81.82 81.83 81.82 81.83 81.83 81.81 81.81 81.83 81.81 81.83 81.83 81.83 81.83 81.80 81.79 81.81 81.80 81.83 81.83 81.81 81.83 81.83 81.83 81.82 81.80 81.80 81.83 81.82 81.83 81.82 81.83 81.83 81.83 81.83 81.80 81.83 81.83 81.83 81.81 81.79 81.82 81.83 81.82 81.80 81.79 81.83 81.83 81.81 81.80 81.83 81.83 81.83 81.83 81.83 12.63 12.24 11.99 11.75 11.63 11.51 11.43 11.38 11.32 11.30 11.34 11.33 11.40 11.46 11.53 11.66 11.77 11.95 12.23 12.64 81.83 81.81 81.83 81.83 81.83 81.81 81.83 81.83 81.78 81.80 81.82 81.83 81.80 81.81 81.83 81.83 81.83 81.81 81.83 81.83 81.82 81.83 81.83 81.83 81.83 81.83 81.82 81.82 81.81 81.83 81.82 81.83 81.81 81.82 81.81 81.81 81.83 81.83 81.82 81.82 81.80 81.83 81.83 81.83 81.81 81.83 81.80 81.82 81.83 81.80 81.83 81.83 81.81 81.83 81.83 81.83 81.83 81.81 81.83 81.81 81.83 81.83 81.83 81.81 81.83 81.82 81.81 81.80 81.83 81.79 81.83 81.83 81.83 81.83 81.83 81.80 81.80 81.82 81.82 81.82 12.739663 195.200000 0.000000 12.736956 195.191451 0.000000 976052863.500000 nohost 0.000000
ODOM 13.764405 195.193939 0.000000 0.000000 0.000000 0.000000 976052863.600000 nohost 0.000000
FLASER 180 81.83 81.80 81.83 81.83 81.83 81.83 81.80 81.79 81.83 81.81 81.83 81.83 81.83 81.83 81.83 81.83 81.83 81.83 81.82 81.82 81.83 81.81 81.83 81.82 81.80 81.83 81.83 81.81 81.83 81.79 81.83 81.81 81.83 81.83 81.83 81.83 81.82 81.82 81.83 81.83 81.80 81.83 81.80 81.83 81.83 81.82 81.83 81.83 81.83 81.81 81.80 81.83 81.83 81.83 81.78 81.81 81.83 81.78 81.83 81.78 81.83 81.82 81.83 81.81 81.83 81.82 81.83 81.83 81.81 81.83 81.83 81.83 81.82 81.82 81.82 81.83 81.80 81.82 81.83 81.80 12.84 12.42 12.14 11.92 11.81 11.68 11.58 11.52 11.48 11.47 11.45 11.45 11.52 11.55 11.70 11.81 11.96 12.10 12.37 12.82 81.80 81.83 81.81 81.79 81.83 81.83 81.83 81.83 81.82 81.83 81.83 81.82 81.79 81.83 81.80 81.83 81.81 81.83 81.83 81.83 81.80 81.83 81.82 81.83 81.83 81.83 81.83 81.83 81.83 81.82 81.83 81.80 81.83 81.83 81.83 81.83 81.83 81.83 81.80 81.81 81.83 81.83 81.83 81.83 81.82 81.83 81.83 81.83 81.83 81.83 81.82 81.83 81.83 81.80 81.83 81.83 81.83 81.80 81.81 81.81 81.83 81.83 81.82 81.83 81.83 81.83 81.83 81.82 81.83 81.83 81.82 81.81 81.82 81.83 81.83 81.83 81.83 81.83 81.83 81.83 13.742117 195.200000 0.000000 13.764405 195.193939 0.000000 976052863.600000 nohost 0.000000
ODOM 14.772283 195.202308 0.000000 0.000000 0.000000 0.000000 976052863.700000 nohost 0.000000
FLASER 180 81.82 81.79 81.81 81.83 81.83 81.83 81.83 81.82 81.83 81.83 81.83 81.80 81.82 81.83 81.83 81.80 81.80 81.83 81.82 81.83 81.83 81.82 81.83 81.83 81.83 81.82 81.80 81.83 81.83 81.83 81.77 81.83 81.83 81.83 81.83 81.81 81.81 81.83 81.83 81.81 81.83 81.83 81.83 81.81 81.83 81.82 81.80 81.83 81.82 81.83 81.83 81.83 81.80 81.83 81.81 81.82 81.82 81.81 81.83 81.83 81.82 81.82 81.83 81.83 81.83 81.83 81.82 81.83 81.82 81.82 81.83 81.83 81.83 81.80 81.83 81.81 81.83 81.83 81.81 81.82 13.01 12.57 12.26 12.08 11.95 11.82 11.69 11.65 11.60 11.57 11.60 11.64 11.66 11.71 11.83 11.92 12.07 12.22 12.60 13.03 81.83 81.81 81.83 81.83 81.82 81.82 81.83 81.83 81.83 81.82 81.82 81.82 81.81 81.83 81.83 81.80 81.83 81.78 81.83 81.83 81.83 81.83 81.83 81.83 81.81 81.83 81.83 81.80 81.83 81.83 81.83 81.81 81.83 81.81 81.83 81.82 81.83 81.83 81.83 81.82 81.82 81.83 81.81 81.83 81.83 81.83 81.82 81.83 81.83 81.83 81.83 81.83 81.80 81.83 81.83 81.83 81.83 81.83 81.82 81.83 81.82 81.82 81.81 81.83 81.83 81.83 81.83 81.82 81.83 81.83 81.82 81.82 81.83 81.81 81.82 81.83 81.83 81.83 81.83 81.80 14.759211 195.200000 0.000000 14.772283 195.202308 0.000000 976052863.700000 nohost 0.000000
ODOM 15.799177 195.198753 0.000000 0.000000 0.000000 0.000000 976052863.800000 nohost 0.000000
FLASER 180 81.83 81.81 81.83 81.82 81.82 81.83 81.83 81.83 81.83 81.83 81.81 81.83 81.83 81.83 81.82 81.81 81.83 81.81 81.83 81.83 81.83 81.83 81.83 81.83 81.83 81.83 81.82 81.83 81.77 81.82 81.83 81.83 81.83 81.82 81.83 81.82 81.82 81.83 81.83 81.82 81.83 81.83 81.83 81.83 81.83 81.82 81.81 81.82 81.83 81.83 81.79 81.83 81.80 81.82 81.83 81.83 81.82 81.82 81.82 81.79 81.83 81.81 81.83 81.82 81.80 81.82 81.83 81.83 81.80 81.83 81.83 81.83 81.83 81.82 81.83 81.83 81.81 81.83 81.80 81.81 13.13 12.72 12.43 12.23 12.07 11.91 11.84 11.78 11.72 11.70 11.66 11.74 11.78 11.82 11.89 12.02 12.20 12.43 12.70 13.17 81.82 81.83 81.83 81.83 81.81 81.81 81.83 81.83 81.83 81.80 81.82 81.82 81.83 81.83 81.83 81.83 81.82 81.83 81.83 81.83 81.83 81.81 81.83 81.83 81.83 81.83 81.83 81.83 81.83 81.82 81.81 81.83 81.83 81.83 81.83 81.83 81.83 81.81 81.83 81.83 81.81 81.83 81.81 81.82 81.83 81.83 81.83 81.82 81.81 81.83 81.82 81.82 81.83 81.79 81.83 81.81 81.83 81.83 81.83 81.83 81.83 81.81 81.83 81.82 81.83 81.83 81.83 81.83 81.82 81.81 81.83 81.81 81.83 81.83 81.83 81.81 81.83 81.83 81.82 81.83 15.788350 195.200000 0.000000 15.799177 195.198753 0.000000 976052863.800000 nohost 0.000000
ODOM 16.812314 195.187998 0.000000 0.000000 0.000000 0.000000 976052863.900000 nohost 0.000000
FLASER 180 81.83 81.82 81.80 81.83 81.81 81.79 81.83 81.82 81.83 81.82 81.83 81.83 81.82 81.82 81.83 81.82 81.83 81.83 81.83 81.83 81.83 81.83 81.83 81.83 81.83 81.83 81.81 81.83 81.83 81.83 81.79 81.82 81.83 81.83 81.83 81.83 81.81 81.83 81.82 81.82 81.82 81.83 81.83 81.83 81.83 81.83 81.83 81.83 81.83 81.83 81.83 81.83 81.83 81.83 81.83 81.83 81.83 81.83 81.83 81.81 81.83 81.82 81.82 81.82 81.83 81.80 81.83 81.83 81.83 81.83 81.83 81.83 81.83 81.83 81.83 81.83 81.83 81.83 81.83 81.81 13.34 12.85 12.52 12.35 12.19 12.06 11.96 11.89 11.85 11.84 11.82 11.84 11.92 11.93 12.04 12.19 12.36 12.56 12.86 13.34 81.82 81.82 81.83 81.83 81.82 81.82 81.83 81.83 81.82 81.83 81.83 81.80 81.81 81.82 81.80 81.82 81.83 81.83 81.82 81.83 81.83 81.82 81.83 81.81 81.82 81.82 81.83 81.83 81.80 81.83 81.82 81.80 81.83 81.83 81.80 81.83 81.81 81.83 81.81 81.83 81.83 81.83 81.83 81.83 81.83 81.82 81.83 81.83 81.83 81.81 81.83 81.83 81.83 81.83 81.82 81.77 81.82 81.82 81.83 81.82 81.83 81.82 81.83 81.83 81.83 81.83 81.83 81.82 81.82 81.81 81.83 81.83 81.83 81.83 81.81 81.83 81.81 81.83 81.81 81.83 16.810526 195.200000 0.000000 16.812314 195.187998 0.000000 976052863.900000 nohost 0.000000
ODOM 17.851747 195.201506 0.000000 0.000000 0.000000 0.000000 976052864.000000 nohost 0.000000
FLASER 180 81.83 81.83 81.83 81.83 81.83 81.83 81.83 81.83 81.83 81.83 81.83 81.83 81.83 81.82 81.83 81.81 81.82 81.82 81.83 81.83 81.83 81.83 81.83 81.82 81.82 81.83 81.83 81.81 81.79 81.81 81.83 81.83 81.82 81.83 81.83 81.82 81.83 81.80 81.83 81.83 81.83 81.83 81.82 81.83 81.83 81.82 81.83 81.83 81.83 81.83 81.82 81.83 81.83 81.83 81.80 81.81 81.81 81.83 81.82 81.83 81.83 81.83 81.83 81.83 81.82 81.83 81.81 81.82 81.83 81.83 81.82 81.82 81.82 81.83 81.79 81.83 81.83 81.83 81.83 81.80 13.51 13.00 12.72 12.45 12.27 12.17 12.08 12.00 11.98 11.94 11.94 11.99 12.02 12.06 12.17 12.27 12.47 12.65 13.02 13.59 81.82 81.83 81.83 81.82 81.83 81.83 81.80 81.83 81.82 81.81 81.83 81.83 81.82 81.83 81.83 81.83 81.80 81.80 81.83 81.82 81.81 81.81 81.83 81.83 81.81 81.83 81.83 81.81 81.79 81.83 81.82 81.83 81.83 81.83 81.83 81.83 81.82 81.83 81.83 81.83 81.82 81.82 81.83 81.83 81.83 81.83 81.83 81.83 81.82 81.83 81.83 81.82 81.83 81.83 81.83 81.80 81.83 81.79 81.83 81.83 81.83 81.83 81.83 81.83 81.82 81.83 81.83 81.83 81.83 81.81 81.83 81.83 81.83 81.79 81.83 81.83 81.83 81.83 81.82 81.83 17.843363 195.200000 0.000000 17.851747 195.201506 0.000000 976052864.000000 nohost 0.000000
ODOM 18.864237 195.194971 0.000000 0.000000 0.000000 0.000000 976052864.100000 nohost 0.000000
FLASER 180 81.83 81.79 81.82 81.81 81.83 81.83 81.79 81.83 81.83 81.83 81.82 81.83 81.79 81.81 81.83 81.83 81.81 81.80 81.82 81.83 81.82 81.83 81.83 81.83 81.81 81.83 81.83 81.83 81.83 81.80 81.83 81.81 81.82 81.83 81.82 81.83 81.83 81.77 81.83 81.83 81.83 81.81 81.82 81.83 81.83 81.81 81.81 81.83 81.83 81.83 81.83 81.81 81.83 81.83 81.80 81.80 81.83 81.83 81.83 81.82 81.82 81.83 81.78 81.78 81.81 81.83 81.82 81.83 81.81 81.83 81.83 81.83 81.82 81.82 81.82 81.79 81.81 81.82 81.81 81.83 13.72 13.17 12.86 12.58 12.41 12.29 12.17 12.15 12.09 12.08 12.09 12.06 12.11 12.16 12.24 12.44 12.56 12.81 13.15 13.71 81.83 81.83 81.82 81.81 81.83 81.81 81.83 81.79 81.83 81.83 81.83 81.83 81.80 81.83 81.83 81.83 81.82 81.83 81.83 81.83 81.83 81.83 81.80 81.83 81.82 81.81 81.83 81.83 81.78 81.83 81.83 81.81 81.80 81.83 81.81 81.83 81.81 81.81 81.83 81.83 81.83 81.83 81.82 81.81 81.82 81.83 81.82 81.83 81.78 81.83 81.80 81.82 81.83 81.83 81.82 81.83 81.83 81.83 81.83 81.82 81.83 81.83 81.83 81.80 81.78 81.83 81.83 81.83 81.81 81.83 81.81 81.82 81.83 81.83 81.83 81.83 81.83 81.80 81.83 81.83 18.877824 195.200000 0.000000 18.864237 195.194971 0.000000 976052864.100000 nohost 0.000000
ODOM 19.911623 195.188463 0.000000 0.000000 0.000000 0.000000 976052864.200000 nohost 0.000000
FLASER 180 81.82 81.83 81.82 81.81 81.83 81.80 81.83 81.83 81.83 81.81 81.83 81.83 81.83 81.78 81.82 81.82 81.83 81.82 81.80 81.80 81.82 81.83 81.83 81.83 81.83 81.83 81.83 81.82 81.83 81.83 81.83 81.83 81.78 81.81 81.82 81.81 81.82 81.79 81.83 81.82 81.83 81.82 81.82 81.83 81.81 81.82 81.82 81.80 81.83 81.83 81.83 81.82 81.82 81.81 81.83 81.83 81.83 81.81 81.83 81.81 81.79 81.83 81.83 81.83 81.78 81.81 81.81 81.80 81.82 81.83 81.83 81.83 81.80 81.79 81.83 81.82 81.82 81.82 81.83 81.83 13.89 13.23 12.96 12.69 12.54 12.39 12.31 12.23 12.18 12.18 12.14 12.15 12.22 12.33 12.41 12.50 12.70 12.91 13.26 13.88 81.83 81.83 81.83 81.83 81.83 81.83 81.80 81.80 81.82 81.80 81.83 81.82 81.82 81.83 81.81 81.83 81.83 81.83 81.83 81.81 81.83 81.81 81.83 81.83 81.83 81.77 81.82 81.82 81.81 81.83 81.83 81.83 81.83 81.83 81.83 81.81 81.83 81.82 81.81 81.80 81.80 81.83 81.82 81.83 81.83 81.83 81.80 81.83 81.83 81.83 81.83 81.79 81.82 81.83 81.81 81.83 81.82 81.83 81.83 81.83 81.83 81.83 81.81 81.83 81.83 81.81 81.82 81.82 81.82 81.83 81.83 81.83 81.83 81.83 81.83 81.80 81.83 81.79 81.83 81.83 19.925052 195.200000 0.000000 19.911623 195.188463 0.000000 976052864.200000 nohost 0.000000
ODOM 20.977142 195.189502 0.000000 0.000000 0.000000 0.000000 976052864.300000 nohost 0.000000
FLASER 180 81.83 81.83 81.79 81.81 81.82 81.83 81.83 81.83 81.83 81.83 81.83 81.83 81.80 81.83 81.78 81.81 81.81 81.83 81.82 81.82 81.83 81.80 81.83 81.83 81.83 81.83 81.83 81.83 81.83 81.80 81.82 81.83 81.80 81.83 81.83 81.82 81.83 81.83 81.81 81.83 81.83 81.83 81.82 81.83 81.83 81.83 81.83 81.83 81.83 81.83 81.81 81.83 81.82 81.83 81.80 81.81 81.83 81.82 81.83 81.81 81.83 81.83 81.80 81.83 81.83 81.79 81.82 81.81 81.83 81.83 81.83 81.83 81.81 81.83 81.81 81.82 81.82 81.83 81.83 81.82 14.08 13.42 13.06 12.82 12.64 12.52 12.42 12.35 12.29 12.27 12.27 12.30 12.32 12.39 12.52 12.67 12.82 13.06 13.39 14.04 81.83 81.83 81.81 81.81 81.80 81.83 81.83 81.82 81.83 81.83 81.83 81.83 81.82 81.82 81.81 81.83 81.82 81.80 81.83 81.83 81.81 81.83 81.83 81.82 81.81 81.83 81.83 81.83 81.83 81.80 81.83 81.83 81.83 81.82 81.83 81.82 81.83 81.83 81.80 81.83 81.83 81.83 81.80 81.82 81.83 81.83 81.83 81.79 81.81 81.81 81.80 81.82 81.83 81.83 81.83 81.80 81.82 81.81 81.83 81.83 81.83 81.83 81.83 81.82 81.80 81.83 81.83 81.81 81.83 81.83 81.82 81.82 81.80 81.83 81.81 81.82 81.83 81.82 81.79 81.83 20.966582 195.200000 0.000000 20.977142 195.189502 0.000000 976052864.300000 nohost 0.000000
ODOM 22.026077 195.214687 0.000000 0.000000 0.000000 0.000000 976052864.400000 nohost 0.000000
FLASER 180 81.83 81.83 81.81 81.83 81.81 81.83 81.83 81.81 81.83 81.81 81.83 81.83 81.81 81.83 81.81 81.81 81.83 81.83 81.82 81.83 81.82 81.83 81.83 81.83 81.83 81.83 81.80 81.82 81.80 81.83 81.83 81.83 81.81 81.82 81.83 81.83 81.83 81.79 81.79 81.83 81.83 81.82 81.83 81.83 81.83 81.83 81.83 81.81 81.83 81.79 81.80 81.83 81.83 81.83 81.80 81.83 81.81 81.83 81.82 81.83 81.81 81.81 81.83 81.83 81.80 81.83 81.83 81.81 81.83 81.82 81.83 81.81 81.81 81.83 81.82 81.82 81.83 81.83 81.79 81.83 14.25 13.55 13.18 12.93 12.70 12.59 12.53 12.46 12.36 12.39 12.36 12.36 12.44 12.48 12.65 12.73 12.90 13.19 13.53 14.28 81.83 81.83 81.83 81.80 81.79 81.82 81.80 81.83 81.83 81.83 81.83 81.80 81.83 81.83 81.83 81.83 81.80 81.79 81.83 81.80 81.83 81.79 81.81 81.83 81.83 81.80 81.81 81.83 81.82 81.83 81.83 81.82 81.82 81.83 81.80 81.79 81.83 81.82 81.83 81.83 81.83 81.83 81.83 81.80 81.81 81.83 81.81 81.83 81.80 81.82 81.83 81.83 81.82 81.81 81.83 81.80 81.80 81.83 81.82 81.83 81.83 81.83 81.83 81.83 81.83 81.83 81.79 81.83 81.81 81.83 81.83 81.83 81.82 81.80 81.83 81.83 81.81 81.83 81.83 81.83 22.012207 195.200000 0.000000 22.026077 195.214687 0.000000 976052864.400000 nohost 0.000000
ODOM 23.060228 195.204538 0.000000 0.000000 0.000000 0.000000 976052864.500000 nohost 0.000000
FLASER 180 81.83 81.81 81.77 81.83 81.76 81.83 81.80 81.81 81.83 81.80 81.83 81.83 81.83 81.83 81.78 81.83 81.83 81.83 81.83 81.83 81.81 81.82 81.83 81.83 81.83 81.82 81.83 81.83 81.83 81.83 81.83 81.83 81.83 81.82 81.80 81.83 81.83 81.83 81.83 81.81 81.83 81.81 81.82 81.83 81.83 81.82 81.83 81.83 81.83 81.83 81.83 81.83 81.82 81.83 81.82 81.83 81.83 81.81 81.83 81.83 81.82 81.81 81.83 81.83 81.80 81.83 81.83 81.82 81.83 81.83 81.80 81.82 81.83 81.83 81.83 81.81 81.83 81.83 81.83 81.83 14.46 13.67 13.26 13.04 12.84 12.71 12.61 12.56 12.50 12.42 12.49 12.48 12.53 12.57 12.71 12.84 13.01 13.29 13.66 14.48 81.80 81.83 81.82 81.82 81.83 81.82 81.80 81.83 81.83 81.80 81.81 81.83 81.83 81.82 81.82 81.83 81.82 81.82 81.83 81.83 81.83 81.83 81.83 81.83 81.83 81.80 81.82 81.80 81.83 81.83 81.82 81.83 81.80 81.83 81.83 81.81 81.81 81.83 81.80 81.83 81.83 81.80 81.83 81.79 81.83 81.82 81.83 81.83 81.83 81.83 81.83 81.83 81.83 81.83 81.83 81.83 81.82 81.83 81.81 81.83 81.80 81.83 81.83 81.83 81.82 81.83 81.83 81.82 81.81 81.83 81.81 81.80 81.83 81.83 81.83 81.83 81.82 81.82 81.81 81.80 23.067566 195.200000 0.000000 23.060228 195.204538 0.000000 976052864.500000 nohost 0.000000
ODOM 24.110898 195.196245 0.000000 0.000000 0.000000 0.000000 976052864.600000 nohost 0.000000
FLASER 180 81.83 81.83 81.80 81.82 81.79 81.83 81.83 81.83 81.82 81.83 81.83 81.83 81.82 81.82 81.83 81.83 81.83 81.83 81.82 81.80 81.83 81.82 81.83 81.82 81.83 81.83 81.81 81.83 81.83 81.81 81.83 81.83 81.75 81.82 81.83 81.83 81.83 81.82 81.81 81.82 81.83 81.83 81.83 81.83 81.83 81.83 81.83 81.82 81.83 81.83 81.83 81.83 81.83 81.82 81.82 81.83 81.83 81.82 81.83 81.80 81.83 81.83 81.83 81.83 81.83 81.82 81.83 81.83 81.81 81.83 81.81 81.82 81.82 81.83 81.82 81.83 81.82 81.83 81.83 81.83 14.80 13.80 13.40 13.12 12.93 12.79 12.69 12.64 12.61 12.60 12.57 12.55 12.62 12.69 12.83 12.96 13.15 13.44 13.80 14.81 81.83 81.83 81.81 81.83 81.83 81.83 81.83 81.83 81.83 81.83 81.82 81.83 81.83 81.83 81.83 81.82 81.83 81.83 81.83 81.83 81.83 81.83 81.83 81.83 81.82 81.81 81.80 81.83 81.82 81.82 81.78 81.83 81.83 81.81 81.83 81.82 81.83 81.82 81.83 81.82 81.83 81.83 81.83 81.82 81.80 81.83 81.83 81.83 81.83 81.83 81.80 81.82 81.83 81.78 81.81 81.82 81.83 81.83 81.83 81.83 81.83 81.79 81.83 81.81 81.81 81.83 81.81 81.83 81.83 81.83 81.83 81.80 81.82 81.83 81.82 81.83 81.82 81.83 81.82 81.80 24.114483 195.200000 0.000000 24.110898 195.196245 0.000000 976052864.600000 nohost 0.000000
ODOM 25.161298 195.198128 0.000000 0.000000 0.000000 0.000000 976052864.700000 nohost 0.000000
FLASER 180 81.83 81.83 81.83 81.83 81.83 81.83 81.83 81.83 81.82 81.83 81.82 81.81 81.83 81.81 81.83 81.78 81.83 81.83 81.83 81.83 81.83 81.83 81.83 81.83 81.83 81.83 81.82 81.83 81.82 81.81 81.79 81.82 81.83 81.82 81.83 81.83 81.83 81.81 81.81 81.83 81.83 81.82 81.83 81.81 81.83 81.82 81.83 81.83 81.83 81.83 81.83 81.81 81.83 81.83 81.81 81.83 81.81 81.83 81.83 81.83 81.82 81.83 81.83 81.83 81.83 81.83 81.83 81.80 81.82 81.83 81.83 81.80 81.80 81.82 81.83 81.83 81.83 81.80 81.82 81.83 81.81 13.90 13.48 13.23 13.03 12.90 12.78 12.72 12.67 12.66 12.66 12.66 12.75 12.84 12.90 13.01 13.21 13.51 13.88 81.83 81.82 81.83 81.81 81.82 81.83 81.82 81.83 81.80 81.82 81.83 81.81 81.83 81.81 81.83 81.81 81.82 81.83 81.83 81.80 81.81 81.82 81.83 81.82 81.83 81.83 81.83 81.81 81.82 81.83 81.83 81.82 81.83 81.83 81.83 81.83 81.83 81.83 81.83 81.83 81.83 81.82 81.81 81.83 81.83 81.83 81.83 81.83 81.83 81.80 81.83 81.83 81.79 81.83 81.82 81.82 81.83 81.82 81.83 81.82 81.81 81.83 81.83 81.78 81.83 81.83 81.82 81.82 81.83 81.83 81.79 81.81 81.83 81.81 81.83 81.83 81.83 81.83 81.80 81.81 81.81 25.174468 195.200000 0.000000 25.161298 195.198128 0.000000 976052864.700000 nohost 0.000000
ODOM 26.230858 195.223296 0.002222 0.000000 0.000000 0.000000 976052864.800000 nohost 0.000000
FLASER 180 81.83 81.83 81.81 81.82 81.83 81.82 81.83 81.82 81.83 81.83 81.82 81.83 81.83 81.83 81.80 81.83 81.83 81.79 81.82 81.83 81.83 81.83 81.83 81.76 81.83 81.83 81.83 81.83 81.83 81.83 81.83 81.83 81.83 81.83 81.82 81.83 81.83 81.83 81.83 81.79 81.80 81.81 81.83 81.82 81.80 81.82 81.81 81.83 81.82 81.80 81.81 81.83 81.82 81.82 81.83 81.82 81.79 81.83 81.83 81.80 81.81 81.83 81.83 81.83 81.83 81.78 81.80 81.82 81.80 81.81 81.83 81.83 81.83 81.83 81.82 81.83 81.82 81.83 81.81 81.78 14.77 13.95 13.57 13.30 13.12 12.97 12.89 12.79 12.76 12.73 12.76 12.78 12.83 12.90 13.00 13.16 13.35 13.65 14.12 81.83 81.83 81.83 81.82 81.83 81.83 81.83 81.82 81.81 81.83 81.82 81.82 81.81 81.83 81.81 81.83 81.81 81.80 81.80 81.82 81.83 81.83 81.83 81.82 81.83 81.83 81.82 81.81 81.83 81.83 81.83 81.83 81.81 81.82 81.83 81.79 81.83 81.83 81.82 81.83 81.83 81.82 81.83 81.80 81.83 81.83 81.83 81.83 81.83 81.83 81.83 81.83 81.83 81.81 81.81 81.83 81.83 81.83 81.83 81.81 81.83 81.83 81.83 81.82 81.83 81.81 81.82 81.83 81.79 81.81 81.83 81.82 81.83 81.83 81.78 81.83 81.83 81.83 81.83 81.82 81.81 26.230570 195.210000 0.002222 26.230858 195.223296 0.002222 976052864.800000 nohost 0.000000
ODOM 27.279124 195.238164 0.006146 0.000000 0.000000 0.000000 976052864.900000 nohost 0.000000
FLASER 180 81.81 81.83 81.81 81.82 81.80 81.83 81.83 81.81 81.83 81.83 81.83 81.82 81.79 81.82 81.83 81.83 81.83 81.80 81.82 81.83 81.83 81.83 81.83 81.83 81.81 81.83 81.82 81.83 81.83 81.83 81.81 81.83 81.81 81.83 81.83 81.83 81.82 81.83 81.83 81.81 81.81 81.83 81.83 81.83 81.83 81.82 81.83 81.83 81.81 81.83 81.83 81.83 81.82 81.81 81.82 81.83 81.80 81.83 81.81 81.82 81.81 81.83 81.82 81.82 81.83 81.83 81.83 81.82 81.83 81.81 81.82 81.83 81.83 81.83 81.83 81.83 81.79 81.83 81.82 81.83 14.52 13.95 13.57 13.35 13.17 13.03 12.95 12.88 12.88 12.84 12.86 12.90 12.94 13.06 13.17 13.34 13.59 13.85 14.47 81.80 81.83 81.80 81.82 81.83 81.81 81.82 81.83 81.83 81.82 81.83 81.83 81.83 81.83 81.81 81.83 81.83 81.82 81.81 81.82 81.83 81.83 81.83 81.81 81.82 81.82 81.83 81.83 81.83 81.83 81.83 81.83 81.82 81.83 81.81 81.83 81.80 81.83 81.83 81.83 81.83 81.82 81.83 81.83 81.83 81.83 81.82 81.80 81.83 81.79 81.83 81.82 81.83 81.81 81.80 81.82 81.83 81.83 81.83 81.83 81.81 81.83 81.80 81.83 81.80 81.83 81.82 81.81 81.81 81.83 81.83 81.83 81.83 81.83 81.83 81.83 81.81 81.83 81.83 81.83 81.83 27.285043 195.230000 0.006146 27.279124 195.238164 0.006146 976052864.900000 nohost 0.000000
ODOM 28.332841 195.255958 0.011362 0.000000 0.000000 0.000000 976052865.000000 nohost 0.000000
FLASER 180 81.83 81.81 81.83 81.83 81.83 81.83 81.83 81.82 81.83 81.83 81.83 81.83 81.83 81.81 81.81 81.83 81.81 81.83 81.81 81.82 81.83 81.83 81.83 81.83 81.83 81.82 81.83 81.82 81.81 81.83 81.81 81.83 81.83 81.82 81.79 81.83 81.83 81.83 81.83 81.81 81.83 81.82 81.83 81.83 81.83 81.80 81.83 81.82 81.83 81.83 81.83 81.83 81.83 81.83 81.83 81.83 81.83 81.83 81.81 81.83 81.83 81.83 81.80 81.83 81.83 81.83 81.83 81.83 81.83 81.83 81.83 81.79 81.81 81.81 81.83 81.83 81.83 81.83 81.83 81.83 14.31 13.85 13.54 13.35 13.21 13.08 13.02 12.92 12.93 12.89 12.96 13.01 13.08 13.15 13.33 13.48 13.77 14.18 81.83 81.83 81.83 81.81 81.83 81.83 81.83 81.83 81.83 81.83 81.83 81.83 81.83 81.82 81.83 81.80 81.81 81.82 81.83 81.82 81.83 81.83 81.83 81.83 81.80 81.81 81.83 81.82 81.83 81.82 81.83 81.83 81.83 81.83 81.83 81.83 81.81 81.82 81.82 81.82 81.82 81.81 81.83 81.81 81.83 81.83 81.83 81.81 81.83 81.83 81.83 81.82 81.83 81.83 81.83 81.83 81.82 81.81 81.82 81.83 81.80 81.81 81.83 81.83 81.83 81.80 81.82 81.82 81.83 81.83 81.83 81.83 81.83 81.83 81.79 81.83 81.83 81.83 81.83 81.83 81.83 81.80 28.347046 195.260000 0.011362 28.332841 195.255958 0.011362 976052865.000000 nohost 0.000000
ODOM 29.397427 195.296121 0.017582 0.000000 0.000000 0.000000 976052865.100000 nohost 0.000000
FLASER 180 81.77 81.83 81.83 81.81 81.82 81.82 81.83 81.82 81.83 81.83 81.83 81.83 81.80 81.83 81.83 81.81 81.83 81.83 81.82 81.83 81.82 81.79 81.83 81.83 81.80 81.83 81.83 81.83 81.83 81.83 81.82 81.83 81.83 81.83 81.83 81.83 81.83 81.83 81.83 81.82 81.82 81.83 81.83 81.83 81.81 81.83 81.83 81.83 81.80 81.83 81.83 81.83 81.80 81.83 81.82 81.81 81.83 81.83 81.80 81.82 81.81 81.79 81.79 81.81 81.81 81.82 81.81 81.83 81.81 81.83 81.82 81.80 81.83 81.83 81.82 81.82 81.82 81.78 81.83 14.95 14.19 13.80 13.59 13.37 13.24 13.14 13.09 13.05 12.98 13.00 13.06 13.15 13.21 13.32 13.52 13.74 14.07 14.62 81.83 81.82 81.80 81.83 81.83 81.83 81.83 81.83 81.82 81.82 81.83 81.81 81.83 81.80 81.83 81.82 81.83 81.83 81.82 81.82 81.83 81.80 81.83 81.83 81.82 81.83 81.79 81.83 81.83 81.83 81.83 81.82 81.83 81.78 81.81 81.83 81.81 81.83 81.80 81.82 81.83 81.81 81.82 81.83 81.82 81.83 81.81 81.82 81.83 81.83 81.80 81.79 81.82 81.83 81.80 81.83 81.83 81.82 81.83 81.83 81.83 81.83 81.83 81.80 81.83 81.83 81.83 81.83 81.82 81.83 81.83 81.83 81.83 81.83 81.83 81.83 81.83 81.79 81.83 81.83 81.82 81.82 29.403977 195.300000 0.017582 29.397427 195.296121 0.017582 976052865.100000 nohost 0.000000
ODOM 30.468993 195.352740 0.024516 0.000000 0.000000 0.000000 976052865.200000 nohost 0.000000
FLASER 180 81.77 81.83 81.83 81.83 81.83 81.81 81.83 81.81 81.83 81.83 81.82 81.83 81.80 81.83 81.83 81.83 81.82 81.82 81.83 81.82 81.83 81.80 81.82 81.83 81.79 81.81 81.83 81.83 81.83 81.83 81.83 81.81 81.83 81.83 81.81 81.83 81.79 81.83 81.83 81.79 81.83 81.83 81.83 81.82 81.83 81.83 81.83 81.83 81.80 81.82 81.81 81.83 81.82 81.83 81.81 81.83 81.79 81.82 81.83 81.83 81.83 81.82 81.81 81.82 81.82 81.83 81.82 81.81 81.83 81.83 81.83 81.78 81.83 81.83 81.81 81.83 81.83 81.83 81.82 14.49 14.09 13.76 13.53 13.38 13.26 13.16 13.15 13.10 13.10 13.15 13.16 13.26 13.40 13.53 13.74 13.99 14.44 81.83 81.81 81.83 81.82 81.83 81.79 81.83 81.83 81.83 81.80 81.83 81.81 81.83 81.81 81.83 81.80 81.83 81.79 81.80 81.83 81.83 81.83 81.82 81.81 81.77 81.83 81.83 81.83 81.83 81.83 81.83 81.81 81.83 81.83 81.81 81.81 81.83 81.82 81.83 81.83 81.82 81.83 81.82 81.83 81.81 81.83 81.80 81.82 81.83 81.82 81.83 81.83 81.83 81.83 81.81 81.81 81.83 81.83 81.81 81.82 81.83 81.82 81.83 81.83 81.83 81.82 81.77 81.83 81.83 81.83 81.83 81.82 81.82 81.80 81.83 81.83 81.83 81.81 81.81 81.82 81.82 81.82 81.81 30.472786 195.350000 0.024516 30.468993 195.352740 0.024516 976052865.200000 nohost 0.000000
ODOM 31.542420 195.431847 0.032004 0.000000 0.000000 0.000000 976052865.300000 nohost 0.000000
FLASER 180 81.81 81.83 81.83 81.83 81.80 81.83 81.79 81.83 81.82 81.83 81.83 81.83 81.83 81.82 81.83 81.83 81.82 81.81 81.83 81.83 81.83 81.83 81.82 81.83 81.82 81.79 81.83 81.83 81.83 81.83 81.83 81.83 81.83 81.83 81.80 81.80 81.83 81.83 81.81 81.83 81.83 81.83 81.83 81.83 81.83 81.83 81.83 81.83 81.83 81.82 81.82 81.83 81.82 81.79 81.83 81.83 81.83 81.83 81.83 81.83 81.83 81.79 81.83 81.83 81.80 81.83 81.80 81.83 81.81 81.81 81.83 81.80 81.81 81.78 81.83 81.83 81.82 81.83 14.94 14.26 13.94 13.69 13.51 13.39 13.26 13.22 13.19 13.14 13.17 13.25 13.31 13.37 13.50 13.71 13.95 14.35 15.19 81.83 81.83 81.81 81.83 81.83 81.83 81.81 81.83 81.83 81.81 81.83 81.80 81.83 81.83 81.83 81.83 81.81 81.83 81.83 81.83 81.83 81.83 81.83 81.83 81.83 81.83 81.83 81.83 81.82 81.83 81.83 81.81 81.81 81.82 81.83 81.83 81.83 81.83 81.83 81.83 81.83 81.83 81.78 81.82 81.82 81.81 81.83 81.83 81.83 81.82 81.81 81.83 81.82 81.82 81.81 81.79 81.83 81.83 81.82 81.82 81.83 81.83 81.83 81.83 81.82 81.83 81.83 81.81 81.83 81.83 81.83 81.83 81.83 81.80 81.83 81.83 81.83 81.83 81.83 81.83 81.81 81.83 81.82 31.545031 195.410000 0.032004 31.542420 195.431847 0.032004 976052865.300000 nohost 0.000000
ODOM 32.611268 195.490314 0.039975 0.000000 0.000000 0.000000 976052865.400000 nohost 0.000000
FLASER 180 81.83 81.81 81.82 81.83 81.81 81.83 81.83 81.83 81.82 81.83 81.79 81.81 81.83 81.83 81.81 81.81 81.83 81.83 81.83 81.78 81.80 81.83 81.83 81.83 81.83 81.83 81.82 81.83 81.82 81.82 81.83 81.82 81.83 81.82 81.81 81.81 81.83 81.81 81.83 81.83 81.80 81.83 81.82 81.83 81.80 81.83 81.83 81.83 81.81 81.83 81.83 81.83 81.83 81.83 81.81 81.82 81.83 81.83 81.83 81.80 81.79 81.83 81.83 81.83 81.83 81.83 81.82 81.83 81.81 81.83 81.83 81.82 81.81 81.83 81.83 81.83 81.83 81.83 14.52 14.10 13.84 13.67 13.51 13.42 13.31 13.25 13.24 13.25 13.30 13.35 13.43 13.54 13.74 13.99 14.27 14.95 81.81 81.83 81.79 81.83 81.81 81.82 81.83 81.83 81.83 81.80 81.83 81.83 81.83 81.82 81.82 81.82 81.83 81.83 81.83 81.83 81.81 81.82 81.83 81.83 81.83 81.83 81.83 81.83 81.83 81.83 81.79 81.83 81.81 81.83 81.81 81.83 81.83 81.83 81.79 81.80 81.81 81.83 81.81 81.83 81.83 81.82 81.83 81.83 81.81 81.83 81.83 81.83 81.77 81.83 81.83 81.83 81.83 81.81 81.83 81.83 81.81 81.83 81.83 81.83 81.83 81.83 81.82 81.82 81.83 81.83 81.82 81.81 81.81 81.83 81.83 81.82 81.79 81.83 81.82 81.83 81.78 81.80 81.83 81.82 32.610514 195.480000 0.039975 32.611268 195.490314 0.039975 976052865.400000 nohost 0.000000
ODOM 33.673187 195.576702 0.048184 0.000000 0.000000 0.000000 976052865.500000 nohost 0.000000
FLASER 180 81.83 81.83 81.83 81.83 81.83 81.83 81.81 81.83 81.82 81.81 81.83 81.83 81.83 81.81 81.83 81.81 81.83 81.83 81.83 81.83 81.83 81.80 81.82 81.83 81.83 81.81 81.83 81.83 81.83 81.83 81.83 81.83 81.82 81.83 81.83 81.82 81.78 81.83 81.83 81.83 81.83 81.80 81.81 81.83 81.83 81.81 81.82 81.83 81.82 81.83 81.83 81.79 81.83 81.81 81.83 81.81 81.81 81.82 81.82 81.81 81.83 81.83 81.83 81.83 81.83 81.82 81.83 81.79 81.82 81.81 81.82 81.83 81.83 81.82 81.83 81.83 81.82 14.75 14.27 13.98 13.74 13.60 13.46 13.38 13.36 13.34 13.31 13.38 13.38 13.48 13.59 13.74 13.96 14.28 14.78 81.79 81.82 81.83 81.83 81.82 81.83 81.83 81.83 81.83 81.80 81.83 81.83 81.83 81.82 81.83 81.81 81.83 81.82 81.83 81.83 81.80 81.83 81.83 81.82 81.83 81.79 81.83 81.83 81.83 81.81 81.83 81.80 81.80 81.81 81.78 81.81 81.83 81.83 81.83 81.82 81.81 81.82 81.83 81.83 81.82 81.83 81.82 81.83 81.80 81.80 81.83 81.83 81.82 81.83 81.79 81.82 81.79 81.82 81.79 81.83 81.83 81.82 81.82 81.82 81.83 81.81 81.83 81.83 81.83 81.83 81.83 81.83 81.82 81.78 81.83 81.83 81.83 81.80 81.83 81.83 81.81 81.81 81.83 81.80 81.82 33.686351 195.560000 0.048184 33.673187 195.576702 0.048184 976052865.500000 nohost 0.000000
ODOM 34.770878 195.662393 0.056648 0.000000 0.000000 0.000000 976052865.600000 nohost 0.000000
FLASER 180 81.83 81.82 81.82 81.82 81.82 81.83 81.83 81.83 81.83 81.80 81.79 81.81 81.83 81.83 81.83 81.81 81.80 81.81 81.83 81.81 81.83 81.83 81.83 81.83 81.83 81.83 81.83 81.81 81.81 81.79 81.83 81.83 81.83 81.82 81.83 81.83 81.83 81.83 81.83 81.83 81.83 81.80 81.83 81.83 81.83 81.83 81.80 81.83 81.81 81.83 81.83 81.83 81.83 81.77 81.82 81.83 81.83 81.82 81.83 81.83 81.77 81.83 81.83 81.83 81.83 81.83 81.83 81.82 81.81 81.83 81.83 81.83 81.83 81.83 81.83 81.83 15.00 14.45 14.11 13.86 13.69 13.57 13.47 13.41 13.38 13.37 13.42 13.44 13.54 13.67 13.80 14.04 14.32 14.77 81.83 81.81 81.81 81.81 81.79 81.81 81.83 81.80 81.80 81.81 81.82 81.79 81.83 81.81 81.83 81.80 81.83 81.81 81.82 81.81 81.83 81.83 81.83 81.83 81.83 81.83 81.83 81.83 81.83 81.82 81.79 81.83 81.83 81.83 81.79 81.83 81.82 81.83 81.80 81.83 81.83 81.82 81.83 81.83 81.81 81.83 81.82 81.81 81.83 81.81 81.83 81.83 81.81 81.83 81.83 81.83 81.82 81.80 81.83 81.83 81.83 81.83 81.83 81.78 81.80 81.83 81.83 81.80 81.83 81.82 81.83 81.83 81.83 81.82 81.83 81.83 81.80 81.82 81.83 81.81 81.82 81.82 81.81 81.81 81.82 81.81 34.761992 195.650000 0.056648 34.770878 195.662393 0.056648 976052865.600000 nohost 0.000000
ODOM 35.853747 195.749825 0.065329 0.000000 0.000000 0.000000 976052865.700000 nohost 0.000000
FLASER 180 81.83 81.82 81.79 81.83 81.83 81.83 81.83 81.83 81.79 81.83 81.83 81.83 81.83 81.83 81.83 81.80 81.83 81.83 81.83 81.83 81.83 81.83 81.81 81.83 81.83 81.83 81.83 81.81 81.82 81.82 81.83 81.83 81.83 81.83 81.79 81.82 81.83 81.83 81.82 81.79 81.83 81.83 81.83 81.81 81.81 81.83 81.83 81.81 81.83 81.83 81.83 81.82 81.83 81.83 81.82 81.83 81.83 81.83 81.81 81.79 81.81 81.82 81.82 81.82 81.83 81.80 81.83 81.80 81.83 81.82 81.82 81.83 81.82 81.83 81.80 15.33 14.56 14.26 13.95 13.77 13.68 13.56 13.49 13.47 13.47 13.45 13.54 13.61 13.67 13.89 14.07 14.36 14.76 81.82 81.83 81.82 81.83 81.83 81.83 81.81 81.83 81.78 81.83 81.83 81.83 81.83 81.83 81.81 81.83 81.79 81.81 81.83 81.80 81.79 81.82 81.80 81.83 81.83 81.80 81.81 81.80 81.80 81.83 81.80 81.83 81.81 81.79 81.83 81.83 81.83 81.81 81.83 81.83 81.83 81.80 81.80 81.81 81.83 81.79 81.82 81.78 81.83 81.83 81.82 81.83 81.83 81.82 81.82 81.83 81.82 81.83 81.82 81.83 81.83 81.80 81.80 81.82 81.82 81.83 81.83 81.83 81.80 81.83 81.82 81.83 81.81 81.81 81.83 81.80 81.81 81.83 81.83 81.80 81.83 81.83 81.83 81.81 81.83 81.83 81.82 35.835413 195.750000 0.065329 35.853747 195.749825 0.065329 976052865.700000 nohost 0.000000
ODOM 36.917914 195.856477 0.071810 0.000000 0.000000 0.000000 976052865.800000 nohost 0.000000
FLASER 180 81.83 81.81 81.83 81.83 81.80 81.83 81.82 81.81 81.83 81.83 81.83 81.83 81.82 81.81 81.83 81.83 81.83 81.83 81.82 81.83 81.82 81.83 81.81 81.82 81.83 81.82 81.81 81.83 81.83 81.82 81.82 81.81 81.83 81.83 81.79 81.82 81.83 81.83 81.83 81.81 81.82 81.83 81.83 81.83 81.80 81.83 81.80 81.83 81.83 81.83 81.82 81.82 81.81 81.82 81.83 81.81 81.83 81.81 81.82 81.83 81.83 81.82 81.82 81.83 81.83 81.83 81.83 81.79 81.83 81.83 81.82 81.82 81.82 81.82 81.79 14.85 14.43 14.11 13.93 13.78 13.63 13.60 13.57 13.51 13.52 13.57 13.66 13.72 13.89 14.05 14.34 14.71 15.66 81.82 81.80 81.83 81.81 81.83 81.80 81.83 81.83 81.81 81.83 81.80 81.82 81.83 81.83 81.83 81.83 81.80 81.80 81.83 81.83 81.82 81.83 81.77 81.83 81.83 81.83 81.80 81.80 81.82 81.80 81.82 81.82 81.83 81.81 81.82 81.80 81.82 81.82 81.83 81.82 81.82 81.83 81.83 81.83 81.83 81.83 81.83 81.81 81.82 81.82 81.83 81.83 81.83 81.82 81.81 81.79 81.83 81.83 81.83 81.82 81.82 81.82 81.82 81.83 81.83 81.79 81.83 81.83 81.83 81.83 81.83 81.82 81.83 81.83 81.82 81.83 81.83 81.82 81.83 81.83 81.83 81.83 81.83 81.82 81.79 81.82 81.82 36.917232 195.850000 0.071810 36.917914 195.856477 0.071810 976052865.800000 nohost 0.000000
ODOM 37.997396 195.936943 0.076709 0.000000 0.000000 0.000000 976052865.900000 nohost 0.000000
FLASER 180 81.80 81.83 81.83 81.83 81.81 81.83 81.83 81.80 81.81 81.82 81.83 81.83 81.83 81.82 81.83 81.83 81.83 81.83 81.82 81.83 81.83 81.81 81.83 81.83 81.82 81.83 81.83 81.81 81.81 81.83 81.82 81.83 81.83 81.83 81.83 81.83 81.83 81.81 81.81 81.83 81.83 81.82 81.83 81.83 81.82 81.83 81.82 81.83 81.81 81.83 81.83 81.83 81.83 81.81 81.80 81.82 81.83 81.83 81.82 81.83 81.83 81.83 81.83 81.83 81.83 81.83 81.83 81.83 81.83 81.80 81.83 81.83 81.83 81.82 15.16 14.59 14.31 14.07 13.90 13.77 13.70 13.63 13.63 13.60 13.61 13.72 13.80 13.91 14.09 14.28 14.64 15.21 81.83 81.83 81.83 81.81 81.83 81.83 81.83 81.83 81.81 81.82 81.83 81.80 81.81 81.81 81.81 81.83 81.82 81.83 81.79 81.83 81.83 81.83 81.83 81.82 81.77 81.83 81.83 81.82 81.83 81.83 81.83 81.83 81.83 81.83 81.83 81.83 81.83 81.83 81.82 81.81 81.83 81.80 81.82 81.82 81.82 81.83 81.83 81.82 81.83 81.83 81.83 81.83 81.81 81.83 81.83 81.83 81.83 81.78 81.82 81.82 81.82 81.83 81.82 81.83 81.83 81.82 81.81 81.81 81.83 81.83 81.81 81.83 81.80 81.83 81.83 81.82 81.83 81.82 81.83 81.83 81.83 81.83 81.80 81.83 81.83 81.83 81.83 81.80 38.000118 195.950000 0.076709 37.997396 195.936943 0.076709 976052865.900000 nohost 0.000000
ODOM 39.083845 196.046933 0.080264 0.000000 0.000000 0.000000 976052866.000000 nohost 0.000000
FLASER 180 81.83 81.83 81.83 81.82 81.83 81.83 81.83 81.81 81.82 81.82 81.81 81.82 81.83 81.83 81.83 81.83 81.82 81.82 81.81 81.83 81.81 81.82 81.83 81.83 81.81 81.83 81.82 81.83 81.80 81.83 81.81 81.83 81.83 81.83 81.82 81.83 81.83 81.83 81.83 81.81 81.82 81.81 81.81 81.82 81.83 81.82 81.83 81.82 81.83 81.79 81.83 81.82 81.83 81.83 81.83 81.81 81.83 81.83 81.82 81.83 81.83 81.83 81.83 81.83 81.83 81.82 81.82 81.83 81.83 81.83 81.83 81.83 81.81 81.83 14.88 14.48 14.23 14.04 13.87 13.78 13.77 13.67 13.69 13.66 13.71 13.75 13.89 14.05 14.27 14.52 14.99 81.83 81.83 81.83 81.83 81.82 81.83 81.82 81.83 81.81 81.79 81.83 81.82 81.82 81.83 81.83 81.78 81.83 81.81 81.82 81.80 81.83 81.82 81.83 81.83 81.81 81.82 81.82 81.83 81.83 81.83 81.83 81.82 81.83 81.81 81.81 81.83 81.82 81.81 81.79 81.83 81.79 81.83 81.81 81.83 81.83 81.83 81.81 81.80 81.82 81.82 81.83 81.81 81.81 81.82 81.83 81.83 81.83 81.82 81.83 81.83 81.81 81.83 81.83 81.78 81.83 81.83 81.83 81.83 81.83 81.81 81.83 81.82 81.83 81.83 81.83 81.83 81.82 81.81 81.83 81.82 81.83 81.83 81.81 81.83 81.83 81.83 81.83 81.83 81.83 39.092421 196.050000 0.080264 39.083845 196.046933 0.080264 976052866.000000 nohost 0.000000
ODOM 40.185087 196.166502 0.082998 0.000000 0.000000 0.000000 976052866.100000 nohost 0.000000
FLASER 180 81.82 81.82 81.83 81.83 81.83 81.82 81.83 81.82 81.83 81.79 81.83 81.83 81.83 81.79 81.83 81.83 81.81 81.82 81.83 81.82 81.81 81.83 81.82 81.83 81.83 81.83 81.82 81.81 81.83 81.83 81.81 81.81 81.80 81.83 81.83 81.83 81.83 81.83 81.83 81.82 81.83 81.83 81.83 81.83 81.83 81.79 81.83 81.83 81.81 81.82 81.83 81.82 81.83 81.82 81.81 81.83 81.83 81.81 81.83 81.82 81.83 81.83 81.82 81.82 81.83 81.83 81.83 81.83 81.83 81.82 81.83 81.82 81.83 15.30 14.74 14.41 14.18 14.01 13.88 13.75 13.73 13.67 13.69 13.74 13.80 13.90 14.04 14.19 14.44 14.81 15.42 81.78 81.80 81.82 81.83 81.83 81.83 81.83 81.83 81.83 81.83 81.81 81.83 81.83 81.82 81.78 81.83 81.79 81.81 81.82 81.82 81.83 81.82 81.82 81.82 81.77 81.83 81.83 81.83 81.79 81.83 81.82 81.81 81.83 81.80 81.83 81.83 81.82 81.82 81.83 81.83 81.80 81.79 81.83 81.83 81.83 81.83 81.83 81.81 81.83 81.83 81.83 81.82 81.82 81.83 81.82 81.83 81.82 81.83 81.83 81.82 81.83 81.82 81.81 81.83 81.82 81.83 81.83 81.81 81.82 81.83 81.83 81.82 81.83 81.83 81.83 81.83 81.81 81.83 81.80 81.83 81.83 81.83 81.83 81.83 81.83 81.81 81.80 81.83 81.82 40.182226 196.150000 0.082998 40.185087 196.166502 0.082998 976052866.100000 nohost 0.000000
ODOM 41.269573 196.245210 0.085054 0.000000 0.000000 0.000000 976052866.200000 nohost 0.000000
FLASER 180 81.81 81.82 81.79 81.83 81.80 81.83 81.83 81.83 81.83 81.83 81.83 81.81 81.83 81.83 81.83 81.83 81.83 81.83 81.83 81.83 81.80 81.83 81.83 81.83 81.81 81.81 81.80 81.82 81.83 81.83 81.83 81.80 81.82 81.82 81.81 81.83 81.83 81.82 81.82 81.81 81.83 81.82 81.82 81.83 81.81 81.80 81.83 81.83 81.83 81.83 81.83 81.83 81.83 81.79 81.83 81.83 81.83 81.83 81.83 81.82 81.81 81.83 81.83 81.83 81.83 81.83 81.82 81.83 81.83 81.83 81.83 81.83 81.83 15.09 14.67 14.36 14.18 13.99 13.92 13.82 13.80 13.77 13.78 13.81 13.93 14.04 14.19 14.41 14.63 15.10 81.82 81.83 81.81 81.82 81.82 81.83 81.83 81.83 81.83 81.81 81.83 81.79 81.79 81.81 81.83 81.83 81.83 81.83 81.82 81.83 81.83 81.83 81.83 81.82 81.83 81.81 81.83 81.80 81.83 81.82 81.83 81.83 81.83 81.80 81.83 81.83 81.83 81.83 81.83 81.82 81.80 81.83 81.79 81.83 81.83 81.83 81.83 81.81 81.82 81.83 81.83 81.83 81.81 81.83 81.83 81.83 81.79 81.80 81.83 81.83 81.83 81.83 81.83 81.83 81.83 81.83 81.83 81.83 81.81 81.81 81.83 81.83 81.83 81.83 81.83 81.83 81.83 81.81 81.81 81.80 81.83 81.83 81.81 81.82 81.82 81.83 81.81 81.83 81.83 81.81 41.272693 196.250000 0.085054 41.269573 196.245210 0.085054 976052866.200000 nohost 0.000000
ODOM 42.350002 196.351325 0.086636 0.000000 0.000000 0.000000 976052866.300000 nohost 0.000000
FLASER 180 81.82 81.82 81.81 81.83 81.83 81.81 81.80 81.83 81.80 81.80 81.83 81.81 81.83 81.80 81.83 81.83 81.81 81.81 81.83 81.81 81.83 81.83 81.83 81.81 81.82 81.80 81.83 81.82 81.83 81.81 81.82 81.83 81.83 81.83 81.83 81.83 81.83 81.83 81.82 81.80 81.83 81.82 81.83 81.83 81.82 81.83 81.83 81.83 81.83 81.82 81.83 81.83 81.82 81.82 81.82 81.83 81.82 81.83 81.81 81.83 81.79 81.82 81.79 81.81 81.83 81.83 81.83 81.83 81.80 81.83 81.80 81.83 15.65 14.94 14.60 14.33 14.16 14.03 13.93 13.90 13.84 13.85 13.85 13.94 14.02 14.14 14.32 14.55 14.88 15.53 81.80 81.83 81.83 81.82 81.83 81.82 81.82 81.82 81.81 81.80 81.82 81.81 81.83 81.83 81.83 81.83 81.83 81.83 81.83 81.83 81.83 81.83 81.83 81.83 81.81 81.83 81.83 81.82 81.83 81.83 81.83 81.82 81.83 81.83 81.83 81.82 81.80 81.83 81.83 81.83 81.82 81.79 81.81 81.83 81.82 81.83 81.83 81.82 81.82 81.83 81.82 81.83 81.83 81.83 81.83 81.79 81.80 81.82 81.83 81.81 81.83 81.83 81.83 81.83 81.80 81.83 81.83 81.80 81.83 81.83 81.82 81.82 81.82 81.83 81.83 81.81 81.82 81.83 81.83 81.83 81.82 81.83 81.81 81.83 81.83 81.83 81.83 81.83 81.83 81.83 42.361799 196.350000 0.086636 42.350002 196.351325 0.086636 976052866.300000 nohost 0.000000
ODOM 43.442726 196.431777 0.087825 0.000000 0.000000 0.000000 976052866.400000 nohost 0.000000
FLASER 180 81.83 81.82 81.83 81.82 81.82 81.83 81.81 81.83 81.81 81.80 81.80 81.83 81.79 81.83 81.83 81.82 81.81 81.83 81.83 81.81 81.83 81.81 81.82 81.82 81.81 81.83 81.81 81.83 81.83 81.81 81.82 81.82 81.83 81.83 81.82 81.83 81.82 81.82 81.79 81.83 81.83 81.83 81.83 81.83 81.80 81.83 81.82 81.81 81.83 81.83 81.82 81.83 81.82 81.83 81.80 81.83 81.82 81.82 81.83 81.83 81.83 81.82 81.83 81.83 81.81 81.82 81.83 81.82 81.83 81.81 81.83 81.80 15.36 14.86 14.54 14.37 14.21 14.08 13.96 13.95 13.94 13.96 13.95 14.02 14.17 14.25 14.46 14.80 15.18 81.83 81.82 81.83 81.83 81.83 81.81 81.80 81.83 81.83 81.83 81.83 81.83 81.83 81.82 81.79 81.83 81.81 81.83 81.83 81.82 81.81 81.80 81.83 81.83 81.82 81.81 81.82 81.81 81.83 81.83 81.83 81.83 81.83 81.82 81.83 81.82 81.79 81.82 81.80 81.83 81.83 81.83 81.82 81.82 81.83 81.82 81.83 81.83 81.83 81.83 81.83 81.82 81.83 81.80 81.83 81.82 81.83 81.83 81.83 81.80 81.82 81.82 81.81 81.83 81.83 81.83 81.83 81.82 81.80 81.83 81.82 81.83 81.81 81.81 81.81 81.82 81.83 81.83 81.83 81.83 81.83 81.82 81.83 81.83 81.83 81.83 81.83 81.83 81.79 81.83 81.81 43.451338 196.450000 0.087825 43.442726 196.431777 0.087825 976052866.400000 nohost 0.000000
ODOM 44.553850 196.556466 0.088649 0.000000 0.000000 0.000000 976052866.500000 nohost 0.000000
FLASER 180 81.83 81.83 81.81 81.83 81.83 81.82 81.83 81.83 81.83 81.82 81.83 81.83 81.80 81.83 81.80 81.83 81.82 81.83 81.82 81.83 81.80 81.82 81.80 81.79 81.80 81.81 81.81 81.79 81.83 81.83 81.83 81.83 81.82 81.83 81.82 81.80 81.83 81.80 81.82 81.83 81.83 81.82 81.83 81.82 81.83 81.83 81.83 81.83 81.80 81.83 81.83 81.81 81.83 81.82 81.81 81.83 81.82 81.83 81.83 81.83 81.83 81.81 81.79 81.81 81.83 81.82 81.82 81.83 81.83 81.83 81.82 81.83 15.19 14.79 14.55 14.35 14.24 14.09 14.04 14.03 13.97 14.04 14.06 14.14 14.24 14.38 14.65 14.98 15.50 81.78 81.83 81.83 81.83 81.83 81.83 81.79 81.82 81.81 81.82 81.79 81.82 81.80 81.83 81.83 81.83 81.83 81.83 81.81 81.83 81.80 81.83 81.82 81.82 81.83 81.82 81.83 81.77 81.83 81.83 81.81 81.83 81.81 81.83 81.83 81.83 81.79 81.83 81.83 81.83 81.80 81.83 81.83 81.83 81.81 81.82 81.81 81.83 81.82 81.83 81.82 81.80 81.79 81.83 81.83 81.82 81.79 81.83 81.83 81.82 81.82 81.83 81.83 81.83 81.82 81.83 81.82 81.81 81.82 81.83 81.80 81.83 81.83 81.81 81.83 81.80 81.83 81.82 81.82 81.83 81.83 81.83 81.80 81.83 81.81 81.82 81.83 81.81 81.82 81.83 81.83 44.544725 196.550000 0.088649 44.553850 196.556466 0.088649 976052866.500000 nohost 0.000000
ODOM 45.658375 196.646634 0.089110 0.000000 0.000000 0.000000 976052866.600000 nohost 0.000000
FLASER 180 81.79 81.83 81.81 81.82 81.81 81.80 81.83 81.83 81.83 81.82 81.81 81.83 81.83 81.83 81.82 81.83 81.83 81.83 81.82 81.83 81.83 81.82 81.82 81.81 81.83 81.82 81.83 81.83 81.82 81.83 81.83 81.83 81.81 81.83 81.83 81.81 81.82 81.83 81.83 81.83 81.83 81.83 81.83 81.83 81.83 81.82 81.80 81.83 81.83 81.83 81.83 81.83 81.81 81.83 81.82 81.83 81.83 81.81 81.83 81.82 81.83 81.83 81.81 81.83 81.83 81.83 81.83 81.81 81.83 81.83 81.80 15.74 15.13 14.77 14.55 14.37 14.23 14.14 14.09 14.07 14.07 14.08 14.13 14.26 14.36 14.54 14.81 15.22 16.07 81.83 81.83 81.83 81.83 81.83 81.81 81.83 81.83 81.82 81.82 81.83 81.82 81.83 81.83 81.83 81.82 81.83 81.83 81.83 81.83 81.82 81.82 81.83 81.81 81.81 81.83 81.82 81.80 81.83 81.82 81.81 81.82 81.82 81.81 81.81 81.83 81.83 81.83 81.83 81.83 81.83 81.82 81.83 81.83 81.80 81.83 81.80 81.83 81.83 81.83 81.81 81.83 81.83 81.83 81.83 81.82 81.79 81.83 81.82 81.83 81.83 81.83 81.81 81.83 81.82 81.83 81.82 81.83 81.83 81.83 81.83 81.83 81.81 81.79 81.83 81.83 81.83 81.83 81.83 81.83 81.82 81.82 81.83 81.81 81.83 81.83 81.78 81.82 81.83 81.83 81.83 45.646388 196.650000 0.089110 45.658375 196.646634 0.089110 976052866.600000 nohost 0.000000
ODOM 46.738897 196.756101 0.089453 0.000000 0.000000 0.000000 976052866.700000 nohost 0.000000
FLASER 180 81.83 81.83 81.83 81.83 81.83 81.83 81.83 81.83 81.83 81.81 81.83 81.83 81.82 81.83 81.81 81.82 81.83 81.81 81.83 81.83 81.83 81.82 81.83 81.81 81.83 81.83 81.82 81.83 81.81 81.83 81.80 81.83 81.82 81.83 81.83 81.79 81.83 81.83 81.83 81.79 81.81 81.83 81.83 81.83 81.83 81.83 81.83 81.80 81.81 81.82 81.83 81.80 81.81 81.82 81.83 81.83 81.83 81.83 81.83 81.83 81.82 81.83 81.83 81.82 81.83 81.83 81.83 81.83 81.83 81.83 81.81 15.56 15.03 14.69 14.51 14.33 14.22 14.18 14.09 14.10 14.11 14.14 14.20 14.29 14.47 14.70 14.95 15.46 81.83 81.77 81.83 81.83 81.82 81.81 81.83 81.80 81.81 81.78 81.83 81.83 81.83 81.83 81.83 81.83 81.83 81.83 81.77 81.78 81.83 81.83 81.80 81.79 81.83 81.82 81.80 81.83 81.81 81.83 81.82 81.83 81.81 81.83 81.83 81.83 81.82 81.82 81.83 81.83 81.82 81.82 81.83 81.83 81.83 81.83 81.83 81.83 81.83 81.83 81.80 81.83 81.83 81.80 81.83 81.82 81.83 81.83 81.83 81.83 81.83 81.80 81.83 81.81 81.82 81.83 81.83 81.83 81.82 81.83 81.82 81.80 81.82 81.82 81.83 81.80 81.83 81.83 81.83 81.82 81.83 81.83 81.81 81.79 81.82 81.83 81.83 81.83 81.83 81.82 81.83 81.83 46.748269 196.750000 0.089453 46.738897 196.756101 0.089453 976052866.700000 nohost 0.000000
ODOM 47.859745 196.851436 0.089696 0.000000 0.000000 0.000000 976052866.800000 nohost 0.000000
FLASER 180 81.83 81.81 81.80 81.82 81.83 81.83 81.82 81.83 81.80 81.82 81.83 81.83 81.83 81.83 81.80 81.80 81.83 81.83 81.82 81.83 81.83 81.83 81.83 81.83 81.83 81.83 81.78 81.81 81.81 81.83 81.83 81.81 81.80 81.83 81.83 81.82 81.83 81.82 81.83 81.83 81.82 81.83 81.83 81.82 81.83 81.83 81.83 81.83 81.83 81.83 81.83 81.83 81.83 81.83 81.83 81.82 81.81 81.82 81.83 81.83 81.83 81.82 81.83 81.82 81.82 81.83 81.83 81.83 81.83 81.83 81.83 15.42 14.96 14.70 14.49 14.34 14.27 14.20 14.15 14.15 14.13 14.25 14.29 14.44 14.61 14.80 15.16 15.82 81.83 81.81 81.83 81.81 81.83 81.83 81.82 81.83 81.81 81.83 81.83 81.81 81.83 81.81 81.83 81.83 81.82 81.81 81.83 81.83 81.80 81.83 81.77 81.83 81.80 81.83 81.80 81.83 81.82 81.83 81.83 81.82 81.83 81.81 81.83 81.83 81.83 81.81 81.82 81.83 81.83 81.82 81.83 81.83 81.83 81.83 81.83 81.83 81.83 81.82 81.83 81.82 81.83 81.83 81.79 81.81 81.81 81.83 81.83 81.83 81.83 81.82 81.83 81.81 81.83 81.83 81.83 81.82 81.83 81.83 81.83 81.83 81.81 81.83 81.83 81.82 81.83 81.83 81.83 81.80 81.83 81.83 81.83 81.79 81.83 81.81 81.83 81.83 81.83 81.82 81.82 81.80 47.850959 196.850000 0.089696 47.859745 196.851436 0.089696 976052866.800000 nohost 0.000000
ODOM 48.963106 196.952048 0.089817 0.000000 0.000000 0.000000 976052866.900000 nohost 0.000000
FLASER 180 81.83 81.82 81.83 81.83 81.83 81.83 81.83 81.83 81.83 81.83 81.83 81.83 81.79 81.80 81.83 81.80 81.80 81.82 81.82 81.82 81.81 81.83 81.83 81.83 81.82 81.80 81.83 81.77 81.83 81.82 81.83 81.79 81.83 81.80 81.83 81.83 81.83 81.83 81.83 81.78 81.82 81.82 81.83 81.82 81.83 81.83 81.82 81.83 81.83 81.82 81.83 81.82 81.83 81.82 81.82 81.80 81.82 81.80 81.83 81.83 81.83 81.83 81.83 81.83 81.83 81.81 81.83 81.83 81.83 81.83 16.00 15.27 14.92 14.69 14.47 14.38 14.24 14.22 14.18 14.17 14.24 14.30 14.40 14.54 14.71 14.96 15.39 81.83 81.82 81.78 81.83 81.83 81.83 81.83 81.80 81.83 81.83 81.83 81.83 81.80 81.82 81.81 81.81 81.83 81.83 81.82 81.80 81.82 81.80 81.82 81.82 81.83 81.83 81.83 81.83 81.83 81.83 81.83 81.82 81.83 81.79 81.82 81.80 81.83 81.83 81.83 81.83 81.82 81.83 81.82 81.83 81.83 81.83 81.83 81.83 81.83 81.82 81.81 81.83 81.82 81.83 81.83 81.83 81.83 81.82 81.81 81.83 81.83 81.83 81.83 81.82 81.82 81.80 81.83 81.80 81.82 81.83 81.83 81.83 81.82 81.83 81.83 81.83 81.83 81.78 81.83 81.83 81.83 81.83 81.82 81.82 81.82 81.82 81.83 81.80 81.83 81.83 81.83 81.76 81.82 48.956753 196.950000 0.089817 48.963106 196.952048 0.089817 976052866.900000 nohost 0.000000
ODOM 50.062044 197.049636 0.089995 0.000000 0.000000 0.000000 976052867.000000 nohost 0.000000
FLASER 180 81.83 81.83 81.81 81.83 81.81 81.83 81.83 81.83 81.83 81.83 81.83 81.83 81.83 81.83 81.83 81.79 81.83 81.83 81.81 81.83 81.82 81.83 81.83 81.78 81.82 81.82 81.77 81.83 81.82 81.81 81.82 81.83 81.83 81.83 81.83 81.83 81.83 81.82 81.83 81.82 81.82 81.83 81.80 81.83 81.80 81.80 81.83 81.83 81.80 81.82 81.80 81.83 81.81 81.83 81.83 81.83 81.81 81.83 81.83 81.83 81.83 81.82 81.82 81.83 81.83 81.83 81.83 81.83 81.81 81.83 15.75 15.22 14.87 14.68 14.51 14.39 14.28 14.30 14.24 14.27 14.33 14.39 14.46 14.68 14.84 15.17 15.68 81.83 81.82 81.83 81.83 81.83 81.83 81.83 81.83 81.81 81.81 81.83 81.83 81.82 81.82 81.81 81.83 81.83 81.80 81.82 81.81 81.82 81.83 81.83 81.83 81.79 81.83 81.83 81.80 81.80 81.82 81.83 81.83 81.82 81.80 81.81 81.81 81.83 81.83 81.83 81.83 81.83 81.83 81.83 81.82 81.83 81.83 81.83 81.83 81.83 81.82 81.81 81.83 81.83 81.83 81.83 81.83 81.83 81.82 81.83 81.83 81.83 81.81 81.81 81.83 81.82 81.83 81.83 81.80 81.82 81.83 81.83 81.83 81.83 81.83 81.82 81.79 81.83 81.80 81.82 81.83 81.83 81.83 81.83 81.80 81.83 81.80 81.83 81.81 81.83 81.83 81.81 81.83 81.83 50.058238 197.050000 0.089995 50.062044 197.049636 0.089995 976052867.000000 nohost 0.000000
ODOM 51.142882 197.152592 0.090253 0.000000 0.000000 0.000000 976052867.100000 nohost 0.000000
FLASER 180 81.82 81.83 81.83 81.78 81.82 81.83 81.82 81.83 81.82 81.80 81.81 81.83 81.81 81.83 81.83 81.81 81.83 81.80 81.82 81.83 81.83 81.79 81.83 81.81 81.83 81.80 81.83 81.83 81.83 81.83 81.83 81.83 81.83 81.83 81.82 81.83 81.83 81.83 81.81 81.83 81.83 81.82 81.82 81.83 81.83 81.83 81.83 81.83 81.83 81.83 81.83 81.83 81.83 81.82 81.83 81.83 81.81 81.82 81.83 81.83 81.79 81.83 81.81 81.83 81.83 81.83 81.82 81.83 81.79 81.83 15.61 15.12 14.90 14.68 14.53 14.43 14.34 14.31 14.29 14.35 14.35 14.48 14.60 14.78 15.01 15.36 16.04 81.82 81.82 81.83 81.81 81.83 81.82 81.81 81.83 81.83 81.81 81.83 81.83 81.83 81.83 81.83 81.82 81.79 81.83 81.82 81.81 81.83 81.82 81.80 81.83 81.83 81.83 81.83 81.83 81.83 81.83 81.83 81.82 81.83 81.83 81.83 81.83 81.77 81.83 81.83 81.83 81.83 81.82 81.83 81.81 81.83 81.83 81.81 81.83 81.83 81.83 81.83 81.80 81.81 81.83 81.83 81.83 81.81 81.81 81.80 81.83 81.81 81.83 81.80 81.82 81.83 81.83 81.82 81.83 81.83 81.82 81.83 81.83 81.83 81.82 81.83 81.83 81.80 81.83 81.83 81.82 81.83 81.82 81.83 81.82 81.83 81.79 81.82 81.81 81.83 81.83 81.83 81.78 81.79 51.153449 197.150000 0.090253 51.142882 197.152592 0.090253 976052867.100000 nohost 0.000000
ODOM 52.247503 197.236933 0.090319 0.000000 0.000000 0.000000 976052867.200000 nohost 0.000000
