# message_name [message contents] ipc_timestamp ipc_hostname logger_timestamp
# message formats defined: PARAM SYNC ODOM FLASER RLASER TRUEPOS
# PARAM param_name param_value
# SYNC tagname
# ODOM x y theta tv rv accel
# FLASER num_readings [range_readings] x y theta odom_x odom_y odom_theta
# RLASER num_readings [range_readings] x y theta odom_x odom_y odom_theta
# TRUEPOS true_x true_y true_theta odom_x odom_y odom_theta
PARAM robot_frontlaser_offset 0.0 nohost 0
PARAM robot_rearlaser_offset 0.0 nohost 0
ODOM 4.591029 195.196971 0.000000 0.000000 0.000000 0.000000 976052862.600000 nohost 0.000000
FLASER 180 81.81 22.75 11.38 7.65 5.70 4.54 3.82 3.25 2.88 2.52 2.30 2.11 1.88 1.78 1.64 1.55 1.47 1.34 1.29 1.25 1.17 1.12 1.08 0.98 1.00 0.94 0.91 0.88 0.85 0.80 0.80 0.78 0.75 0.69 0.73 0.72 0.72 0.65 0.66 0.64 0.65 0.63 0.60 0.55 0.54 0.56 0.58 0.57 0.51 0.52 0.54 0.47 0.50 0.51 0.49 0.48 0.50 0.48 0.45 0.48 0.46 0.47 0.44 0.44 0.44 0.48 0.44 0.45 0.43 0.41 0.42 0.44 0.45 0.44 0.42 0.43 0.41 0.41 0.44 0.36 0.43 0.38 0.42 0.36 0.40 0.40 0.44 0.37 0.39 0.41 0.41 0.40 0.38 0.44 0.39 0.43 0.41 0.42 0.38 0.41 0.40 0.40 0.38 0.41 0.43 0.43 0.45 0.41 0.44 0.48 0.47 0.42 0.45 0.41 0.42 0.43 0.47 0.43 0.44 0.46 0.46 0.46 0.47 0.47 0.50 0.52 0.51 0.49 0.50 0.50 0.48 0.54 0.54 0.53 0.59 0.53 0.57 0.62 0.60 0.62 0.64 0.64 0.64 0.68 0.74 0.66 0.74 0.77 0.80 0.78 0.80 0.82 0.86 0.89 0.97 0.94 1.02 1.06 1.13 1.19 1.21 1.29 1.42 1.46 1.56 1.67 1.78 1.88 2.06 2.25 2.56 2.84 3.28 3.81 4.57 81.80 81.81 81.83 81.83 81.83 4.600000 195.200000 0.000000 4.591029 195.196971 0.000000 976052862.600000 nohost 0.000000
ODOM 5.441531 195.193684 0.000000 0.000000 0.000000 0.000000 976052862.700000 nohost 0.000000
FLASER 180 81.80 81.82 81.82 81.83 81.82 81.82 81.82 81.83 81.83 81.83 81.80 81.81 81.80 81.83 81.82 81.80 81.83 81.82 81.83 81.83 81.83 81.81 81.82 81.83 81.83 81.83 81.82 81.83 81.81 81.82 81.81 81.83 81.83 81.83 81.80 81.81 81.81 81.83 81.82 81.83 81.82 81.83 81.78 81.82 81.81 81.83 81.83 81.83 81.83 81.83 81.83 81.83 81.81 81.82 81.83 81.79 81.83 81.80 81.83 81.83 81.83 81.80 81.83 81.83 81.82 81.83 81.83 81.83 81.81 81.83 81.83 81.83 81.83 81.83 81.83 81.82 81.82 81.83 81.81 11.29 10.94 10.71 10.53 10.41 10.28 10.14 10.12 10.05 10.02 10.00 10.02 10.04 10.04 10.14 10.18 10.28 10.37 10.49 10.68 10.94 11.30 81.83 81.81 81.83 81.83 81.82 81.83 81.83 81.83 81.83 81.82 81.83 81.78 81.80 81.82 81.81 81.81 81.81 81.83 81.83 81.83 81.83 81.82 81.81 81.80 81.82 81.83 81.80 81.83 81.83 81.80 81.79 81.83 81.81 81.83 81.82 81.83 81.81 81.83 81.83 81.81 81.83 81.82 81.81 81.83 81.83 81.82 81.83 81.83 81.83 81.82 81.82 81.83 81.82 81.83 81.83 81.83 81.83 81.83 81.83 81.82 81.82 81.83 81.83 81.82 81.83 81.82 81.83 81.83 81.81 81.83 81.82 81.82 81.83 81.83 81.81 81.83 81.82 81.81 81.83 5.424882 195.200000 0.000000 5.441531 195.193684 0.000000 976052862.700000 nohost 0.000000
ODOM 6.274856 195.181613 0.000000 0.000000 0.000000 0.000000 976052862.800000 nohost 0.000000
FLASER 180 81.83 81.83 81.83 81.82 81.83 81.82 81.80 81.82 81.80 81.83 81.83 81.83 81.83 81.82 81.83 81.83 81.83 81.83 81.82 81.81 81.80 81.83 81.83 81.83 81.82 81.83 81.80 81.81 81.83 81.83 81.83 81.80 81.80 81.81 81.81 81.81 81.83 81.83 81.83 81.80 81.80 81.83 81.83 81.83 81.80 81.83 81.83 81.83 81.83 81.83 81.81 81.83 81.81 81.83 81.82 81.83 81.83 81.83 81.83 81.83 81.82 81.82 81.83 81.80 81.82 81.83 81.83 81.83 81.83 81.83 81.82 81.82 81.82 81.83 81.80 81.83 81.83 81.83 81.83 11.53 11.14 10.89 10.69 10.58 10.46 10.34 10.26 10.20 10.20 10.18 10.16 10.16 10.22 10.23 10.35 10.41 10.54 10.68 10.86 11.15 11.55 81.81 81.83 81.81 81.79 81.83 81.83 81.83 81.83 81.81 81.83 81.83 81.83 81.82 81.81 81.83 81.83 81.82 81.83 81.83 81.80 81.81 81.82 81.82 81.83 81.83 81.80 81.81 81.83 81.83 81.80 81.83 81.81 81.83 81.82 81.83 81.83 81.81 81.83 81.82 81.80 81.83 81.83 81.83 81.82 81.82 81.82 81.81 81.83 81.83 81.82 81.79 81.83 81.83 81.83 81.81 81.82 81.83 81.82 81.83 81.83 81.79 81.81 81.83 81.77 81.83 81.83 81.83 81.83 81.83 81.82 81.83 81.83 81.82 81.82 81.83 81.83 81.82 81.83 81.83 6.273415 195.200000 0.000000 6.274856 195.181613 0.000000 976052862.800000 nohost 0.000000
ODOM 7.140065 195.191789 0.000000 0.000000 0.000000 0.000000 976052862.900000 nohost 0.000000
FLASER 180 81.83 81.83 81.80 81.83 81.83 81.82 81.83 81.83 81.83 81.83 81.82 81.83 81.83 81.83 81.83 81.83 81.83 81.83 81.82 81.83 81.81 81.83 81.83 81.81 81.82 81.83 81.83 81.82 81.83 81.82 81.77 81.83 81.83 81.83 81.83 81.81 81.80 81.79 81.83 81.80 81.83 81.83 81.82 81.83 81.83 81.82 81.83 81.83 81.83 81.80 81.81 81.82 81.83 81.83 81.82 81.82 81.80 81.80 81.81 81.83 81.83 81.83 81.83 81.82 81.83 81.83 81.82 81.82 81.83 81.83 81.83 81.81 81.82 81.83 81.82 81.82 81.83 81.82 81.83 11.77 11.33 11.06 10.84 10.71 10.58 10.51 10.40 10.41 10.33 10.34 10.31 10.36 10.40 10.40 10.51 10.61 10.69 10.87 11.06 11.34 11.78 81.83 81.83 81.82 81.79 81.83 81.83 81.83 81.83 81.83 81.83 81.83 81.80 81.83 81.83 81.83 81.83 81.83 81.83 81.83 81.79 81.80 81.80 81.83 81.83 81.83 81.83 81.81 81.83 81.83 81.83 81.83 81.83 81.83 81.83 81.83 81.81 81.80 81.81 81.83 81.83 81.83 81.78 81.83 81.83 81.83 81.83 81.83 81.83 81.83 81.83 81.81 81.83 81.83 81.83 81.83 81.81 81.81 81.82 81.80 81.83 81.78 81.83 81.83 81.82 81.83 81.83 81.83 81.83 81.83 81.81 81.81 81.83 81.83 81.83 81.83 81.82 81.83 81.81 81.80 7.137695 195.200000 0.000000 7.140065 195.191789 0.000000 976052862.900000 nohost 0.000000
ODOM 8.019270 195.216561 0.000000 0.000000 0.000000 0.000000 976052863.000000 nohost 0.000000
FLASER 180 81.83 81.82 81.79 81.83 81.83 81.81 81.83 81.81 81.83 81.83 81.83 81.82 81.81 81.82 81.83 81.78 81.82 81.81 81.82 81.83 81.83 81.83 81.83 81.79 81.83 81.81 81.83 81.82 81.83 81.82 81.82 81.82 81.83 81.83 81.82 81.83 81.83 81.83 81.80 81.83 81.83 81.83 81.82 81.80 81.82 81.83 81.83 81.83 81.83 81.83 81.83 81.81 81.78 81.83 81.83 81.80 81.83 81.81 81.83 81.82 81.80 81.80 81.83 81.83 81.83 81.83 81.83 81.80 81.82 81.83 81.83 81.83 81.81 81.83 81.83 81.81 81.83 81.81 81.83 12.00 11.54 11.25 11.04 10.90 10.78 10.66 10.63 10.51 10.49 10.48 10.50 10.52 10.54 10.62 10.68 10.81 10.89 11.03 11.26 11.55 12.02 81.82 81.83 81.83 81.83 81.83 81.83 81.82 81.83 81.82 81.83 81.83 81.83 81.83 81.83 81.80 81.83 81.83 81.82 81.83 81.83 81.83 81.82 81.83 81.83 81.83 81.83 81.83 81.83 81.82 81.80 81.83 81.83 81.80 81.83 81.83 81.81 81.83 81.81 81.83 81.83 81.81 81.81 81.82 81.83 81.81 81.83 81.83 81.82 81.83 81.83 81.83 81.83 81.83 81.82 81.82 81.83 81.82 81.83 81.83 81.81 81.83 81.83 81.80 81.83 81.83 81.83 81.83 81.83 81.82 81.83 81.83 81.82 81.83 81.83 81.83 81.81 81.83 81.83 81.83 8.025215 195.200000 0.000000 8.019270 195.216561 0.000000 976052863.000000 nohost 0.000000
ODOM 8.925312 195.196787 0.000000 0.000000 0.000000 0.000000 976052863.100000 nohost 0.000000
FLASER 180 81.81 81.82 81.83 81.83 81.83 81.83 81.81 81.83 81.83 81.83 81.83 81.80 81.83 81.83 81.80 81.82 81.82 81.83 81.81 81.83 81.82 81.83 81.83 81.81 81.83 81.83 81.83 81.83 81.82 81.83 81.83 81.80 81.81 81.83 81.83 81.83 81.81 81.83 81.83 81.80 81.83 81.82 81.83 81.79 81.83 81.81 81.83 81.81 81.83 81.82 81.82 81.81 81.83 81.83 81.81 81.83 81.80 81.83 81.83 81.80 81.83 81.83 81.83 81.82 81.80 81.83 81.83 81.83 81.81 81.83 81.83 81.81 81.80 81.82 81.80 81.81 81.81 81.83 81.83 12.26 11.74 11.45 11.25 11.05 10.94 10.84 10.75 10.72 10.66 10.70 10.65 10.66 10.71 10.74 10.81 10.91 11.05 11.23 11.49 11.75 12.27 81.83 81.83 81.81 81.83 81.83 81.83 81.83 81.82 81.81 81.82 81.83 81.83 81.83 81.82 81.83 81.83 81.83 81.82 81.83 81.82 81.83 81.83 81.83 81.79 81.83 81.83 81.83 81.83 81.83 81.81 81.83 81.83 81.82 81.81 81.83 81.83 81.83 81.83 81.82 81.83 81.80 81.83 81.81 81.83 81.83 81.83 81.83 81.80 81.83 81.83 81.83 81.83 81.82 81.83 81.83 81.83 81.83 81.79 81.83 81.83 81.83 81.80 81.83 81.81 81.81 81.83 81.83 81.78 81.81 81.82 81.80 81.83 81.83 81.83 81.83 81.80 81.83 81.83 81.83 8.930738 195.200000 0.000000 8.925312 195.196787 0.000000 976052863.100000 nohost 0.000000
ODOM 9.862154 195.187037 0.000000 0.000000 0.000000 0.000000 976052863.200000 nohost 0.000000
FLASER 180 81.81 81.83 81.82 81.82 81.79 81.83 81.83 81.83 81.80 81.83 81.83 81.82 81.81 81.83 81.82 81.80 81.83 81.82 81.83 81.83 81.82 81.83 81.83 81.83 81.83 81.81 81.81 81.80 81.83 81.82 81.80 81.81 81.82 81.81 81.83 81.83 81.82 81.83 81.80 81.83 81.83 81.83 81.81 81.83 81.81 81.79 81.80 81.83 81.83 81.83 81.80 81.83 81.81 81.83 81.83 81.81 81.83 81.83 81.83 81.78 81.82 81.81 81.83 81.83 81.83 81.83 81.83 81.81 81.83 81.81 81.79 81.83 81.81 81.83 81.82 81.83 81.82 81.82 81.83 12.54 11.97 11.63 11.42 11.21 11.12 11.04 10.95 10.89 10.86 10.81 10.81 10.87 10.84 10.94 11.02 11.14 11.23 11.39 11.64 11.96 12.57 81.83 81.81 81.83 81.82 81.83 81.83 81.83 81.83 81.83 81.83 81.83 81.83 81.83 81.83 81.80 81.82 81.83 81.83 81.83 81.79 81.82 81.83 81.81 81.83 81.81 81.79 81.83 81.83 81.83 81.83 81.83 81.81 81.82 81.83 81.81 81.80 81.83 81.83 81.81 81.83 81.82 81.81 81.83 81.81 81.82 81.81 81.82 81.83 81.83 81.83 81.83 81.82 81.83 81.83 81.83 81.83 81.83 81.83 81.83 81.83 81.83 81.83 81.83 81.83 81.82 81.83 81.82 81.82 81.81 81.83 81.83 81.81 81.82 81.83 81.83 81.83 81.81 81.82 81.80 9.851530 195.200000 0.000000 9.862154 195.187037 0.000000 976052863.200000 nohost 0.000000
ODOM 10.804715 195.197353 0.000000 0.000000 0.000000 0.000000 976052863.300000 nohost 0.000000
FLASER 180 81.83 81.82 81.81 81.83 81.82 81.83 81.83 81.83 81.81 81.83 81.83 81.83 81.83 81.83 81.83 81.82 81.80 81.83 81.83 81.83 81.83 81.83 81.81 81.82 81.83 81.83 81.82 81.83 81.83 81.82 81.83 81.83 81.82 81.83 81.83 81.79 81.83 81.79 81.83 81.82 81.82 81.83 81.83 81.83 81.82 81.81 81.83 81.82 81.83 81.83 81.82 81.82 81.83 81.83 81.81 81.80 81.83 81.82 81.82 81.82 81.83 81.83 81.83 81.82 81.83 81.83 81.83 81.83 81.83 81.83 81.83 81.83 81.83 81.82 81.83 81.83 81.83 81.83 81.82 12.87 12.18 11.82 11.57 11.44 11.25 11.18 11.11 11.03 10.96 10.98 10.98 11.02 11.03 11.11 11.18 11.30 11.42 11.58 11.79 12.18 12.86 81.83 81.81 81.83 81.83 81.81 81.81 81.83 81.81 81.83 81.83 81.83 81.80 81.82 81.83 81.80 81.83 81.80 81.83 81.83 81.83 81.81 81.82 81.83 81.80 81.83 81.83 81.83 81.83 81.80 81.83 81.83 81.79 81.82 81.83 81.83 81.83 81.83 81.83 81.83 81.80 81.81 81.83 81.83 81.83 81.82 81.81 81.79 81.83 81.83 81.83 81.82 81.83 81.83 81.81 81.83 81.82 81.83 81.83 81.82 81.80 81.83 81.82 81.83 81.83 81.82 81.81 81.83 81.83 81.83 81.83 81.80 81.83 81.83 81.83 81.82 81.83 81.82 81.83 81.81 10.793574 195.200000 0.000000 10.804715 195.197353 0.000000 976052863.300000 nohost 0.000000
ODOM 11.746644 195.214392 0.000000 0.000000 0.000000 0.000000 976052863.400000 nohost 0.000000
FLASER 180 81.83 81.83 81.80 81.83 81.81 81.81 81.83 81.79 81.83 81.80 81.83 81.83 81.83 81.83 81.83 81.83 81.83 81.83 81.83 81.82 81.78 81.82 81.82 81.82 81.82 81.82 81.82 81.83 81.83 81.83 81.79 81.83 81.83 81.81 81.83 81.82 81.83 81.81 81.83 81.79 81.82 81.82 81.83 81.83 81.81 81.83 81.81 81.83 81.80 81.83 81.83 81.80 81.83 81.83 81.83 81.83 81.83 81.83 81.82 81.82 81.82 81.83 81.83 81.83 81.83 81.83 81.83 81.81 81.83 81.83 81.82 81.80 81.83 81.83 81.81 81.83 81.83 81.83 81.78 81.83 12.43 12.08 11.77 11.64 11.48 11.35 11.26 11.19 11.17 11.15 11.18 11.19 11.21 11.27 11.35 11.46 11.63 11.81 12.03 12.41 81.83 81.81 81.83 81.81 81.83 81.83 81.83 81.81 81.83 81.83 81.82 81.83 81.82 81.83 81.81 81.83 81.81 81.82 81.83 81.82 81.83 81.83 81.82 81.81 81.83 81.79 81.83 81.82 81.83 81.83 81.83 81.81 81.81 81.83 81.83 81.78 81.83 81.81 81.83 81.83 81.83 81.83 81.83 81.83 81.79 81.83 81.83 81.82 81.82 81.83 81.82 81.83 81.78 81.81 81.83 81.83 81.82 81.82 81.81 81.83 81.83 81.81 81.83 81.79 81.83 81.83 81.83 81.83 81.83 81.83 81.81 81.83 81.81 81.81 81.82 81.83 81.83 81.83 81.83 81.83 11.757682 195.200000 0.000000 11.746644 195.214392 0.000000 976052863.400000 nohost 0.000000
ODOM 12.733714 195.200545 0.000000 0.000000 0.000000 0.000000 976052863.500000 nohost 0.000000
FLASER 180 81.81 81.81 81.82 81.83 81.83 81.83 81.83 81.81 81.83 81.83 81.82 81.83 81.83 81.78 81.83 81.82 81.83 81.83 81.83 81.80 81.81 81.83 81.78 81.83 81.83 81.82 81.83 81.82 81.83 81.83 81.82 81.81 81.81 81.82 81.80 81.80 81.78 81.83 81.81 81.83 81.80 81.82 81.80 81.83 81.83 81.82 81.81 81.83 81.83 81.83 81.83 81.82 81.83 81.83 81.82 81.83 81.83 81.83 81.80 81.83 81.80 81.82 81.83 81.83 81.80 81.83 81.81 81.83 81.83 81.83 81.83 81.81 81.83 81.82 81.83 81.82 81.83 81.82 81.83 81.83 12.63 12.24 11.97 11.77 11.63 11.53 11.42 11.36 11.35 11.30 11.31 11.31 11.34 11.41 11.53 11.63 11.81 12.00 12.26 12.62 81.83 81.82 81.83 81.83 81.82 81.82 81.82 81.83 81.83 81.81 81.83 81.83 81.83 81.81 81.83 81.82 81.82 81.83 81.83 81.80 81.80 81.83 81.80 81.81 81.81 81.83 81.83 81.83 81.81 81.83 81.80 81.82 81.83 81.83 81.83 81.83 81.83 81.79 81.83 81.81 81.83 81.83 81.83 81.82 81.83 81.82 81.81 81.80 81.83 81.80 81.83 81.81 81.83 81.83 81.81 81.83 81.81 81.79 81.83 81.83 81.82 81.82 81.77 81.83 81.83 81.83 81.81 81.81 81.81 81.81 81.82 81.83 81.83 81.82 81.83 81.83 81.83 81.83 81.82 81.81 12.739663 195.200000 0.000000 12.733714 195.200545 0.000000 976052863.500000 nohost 0.000000
ODOM 13.748298 195.202830 0.000000 0.000000 0.000000 0.000000 976052863.600000 nohost 0.000000
FLASER 180 81.83 81.82 81.82 81.81 81.83 81.83 81.83 81.79 81.82 81.83 81.83 81.83 81.80 81.83 81.83 81.82 81.83 81.81 81.82 81.83 81.83 81.82 81.83 81.83 81.83 81.83 81.82 81.83 81.83 81.83 81.83 81.82 81.83 81.83 81.83 81.83 81.83 81.79 81.83 81.83 81.83 81.82 81.83 81.81 81.83 81.83 81.82 81.82 81.83 81.83 81.83 81.81 81.83 81.83 81.83 81.81 81.83 81.83 81.83 81.83 81.83 81.83 81.83 81.83 81.83 81.81 81.79 81.83 81.83 81.81 81.80 81.82 81.82 81.82 81.83 81.81 81.83 81.79 81.83 81.83 12.84 12.39 12.11 11.97 11.79 11.67 11.60 11.52 11.46 11.49 11.41 11.44 11.53 11.58 11.65 11.83 11.99 12.14 12.43 12.82 81.83 81.82 81.83 81.83 81.83 81.83 81.83 81.81 81.82 81.81 81.83 81.83 81.83 81.83 81.82 81.81 81.83 81.83 81.83 81.83 81.79 81.83 81.79 81.83 81.82 81.83 81.83 81.83 81.81 81.83 81.83 81.83 81.83 81.83 81.83 81.83 81.83 81.83 81.82 81.82 81.80 81.83 81.83 81.81 81.83 81.78 81.82 81.79 81.83 81.79 81.83 81.81 81.78 81.83 81.83 81.83 81.83 81.81 81.83 81.81 81.83 81.83 81.82 81.79 81.83 81.83 81.83 81.83 81.83 81.82 81.83 81.83 81.83 81.80 81.83 81.83 81.83 81.82 81.81 81.83 13.742117 195.200000 0.000000 13.748298 195.202830 0.000000 976052863.600000 nohost 0.000000
ODOM 14.743690 195.198157 0.000000 0.000000 0.000000 0.000000 976052863.700000 nohost 0.000000
FLASER 180 81.83 81.77 81.83 81.82 81.82 81.82 81.82 81.82 81.83 81.81 81.83 81.83 81.79 81.83 81.83 81.79 81.83 81.82 81.83 81.83 81.82 81.82 81.82 81.83 81.82 81.83 81.83 81.83 81.83 81.83 81.78 81.83 81.83 81.83 81.83 81.81 81.83 81.78 81.81 81.83 81.81 81.78 81.83 81.82 81.81 81.83 81.82 81.83 81.83 81.83 81.81 81.82 81.83 81.82 81.81 81.83 81.83 81.82 81.80 81.80 81.78 81.82 81.83 81.81 81.81 81.82 81.83 81.82 81.83 81.81 81.80 81.83 81.83 81.83 81.83 81.82 81.81 81.82 81.83 81.83 12.96 12.58 12.30 12.11 11.91 11.79 11.72 11.67 11.60 11.65 11.58 11.59 11.65 11.71 11.81 11.93 12.08 12.27 12.61 13.00 81.80 81.80 81.83 81.83 81.83 81.83 81.81 81.83 81.82 81.82 81.82 81.80 81.77 81.83 81.83 81.82 81.82 81.83 81.83 81.83 81.83 81.83 81.83 81.83 81.82 81.80 81.83 81.83 81.82 81.83 81.80 81.82 81.82 81.80 81.82 81.80 81.83 81.83 81.83 81.83 81.81 81.83 81.83 81.83 81.82 81.83 81.82 81.78 81.82 81.81 81.83 81.81 81.82 81.83 81.82 81.81 81.82 81.83 81.82 81.82 81.83 81.83 81.83 81.83 81.81 81.83 81.80 81.79 81.83 81.83 81.83 81.83 81.82 81.79 81.80 81.83 81.83 81.83 81.81 81.83 14.759211 195.200000 0.000000 14.743690 195.198157 0.000000 976052863.700000 nohost 0.000000
ODOM 15.791727 195.195337 0.000000 0.000000 0.000000 0.000000 976052863.800000 nohost 0.000000
FLASER 180 81.81 81.82 81.83 81.83 81.83 81.83 81.83 81.81 81.80 81.83 81.81 81.83 81.81 81.82 81.79 81.81 81.80 81.83 81.82 81.81 81.83 81.83 81.81 81.83 81.83 81.82 81.83 81.79 81.79 81.81 81.83 81.83 81.83 81.83 81.83 81.83 81.83 81.80 81.80 81.79 81.83 81.82 81.83 81.82 81.83 81.83 81.82 81.80 81.81 81.83 81.83 81.83 81.81 81.83 81.80 81.83 81.83 81.82 81.83 81.82 81.83 81.83 81.83 81.82 81.83 81.83 81.80 81.83 81.81 81.82 81.82 81.83 81.82 81.83 81.83 81.83 81.83 81.83 81.82 81.81 13.15 12.74 12.42 12.20 12.06 11.93 11.85 11.77 11.72 11.70 11.73 11.72 11.75 11.84 11.93 12.02 12.21 12.43 12.70 13.16 81.80 81.82 81.83 81.82 81.81 81.83 81.83 81.82 81.82 81.83 81.83 81.82 81.82 81.83 81.83 81.83 81.79 81.83 81.82 81.83 81.83 81.83 81.83 81.83 81.83 81.82 81.81 81.83 81.83 81.83 81.80 81.83 81.83 81.82 81.83 81.82 81.83 81.83 81.80 81.83 81.83 81.83 81.81 81.83 81.83 81.82 81.81 81.83 81.83 81.83 81.83 81.83 81.83 81.82 81.83 81.83 81.83 81.80 81.83 81.80 81.83 81.83 81.83 81.83 81.83 81.83 81.83 81.82 81.83 81.83 81.79 81.82 81.83 81.83 81.82 81.83 81.82 81.82 81.80 81.83 15.788350 195.200000 0.000000 15.791727 195.195337 0.000000 976052863.800000 nohost 0.000000
ODOM 16.804436 195.180977 0.000000 0.000000 0.000000 0.000000 976052863.900000 nohost 0.000000
FLASER 180 81.83 81.83 81.83 81.83 81.83 81.82 81.83 81.83 81.79 81.81 81.83 81.83 81.81 81.83 81.77 81.83 81.81 81.83 81.82 81.82 81.83 81.82 81.81 81.82 81.83 81.80 81.83 81.78 81.83 81.82 81.83 81.83 81.82 81.83 81.83 81.83 81.83 81.82 81.82 81.83 81.83 81.83 81.80 81.80 81.82 81.79 81.81 81.83 81.83 81.82 81.83 81.83 81.83 81.83 81.83 81.83 81.83 81.83 81.83 81.82 81.83 81.83 81.83 81.81 81.82 81.83 81.81 81.83 81.83 81.83 81.83 81.81 81.81 81.82 81.83 81.83 81.80 81.83 81.83 81.83 13.33 12.90 12.55 12.34 12.20 12.07 11.97 11.92 11.86 11.86 11.85 11.83 11.86 11.97 12.07 12.16 12.33 12.57 12.89 13.35 81.83 81.83 81.83 81.83 81.79 81.82 81.80 81.83 81.82 81.82 81.83 81.83 81.81 81.82 81.79 81.83 81.83 81.82 81.83 81.83 81.83 81.83 81.83 81.83 81.81 81.83 81.81 81.83 81.82 81.82 81.81 81.82 81.83 81.82 81.83 81.81 81.83 81.83 81.83 81.83 81.83 81.83 81.83 81.83 81.82 81.83 81.81 81.81 81.83 81.83 81.83 81.82 81.81 81.83 81.79 81.83 81.83 81.79 81.83 81.82 81.83 81.80 81.83 81.83 81.80 81.83 81.83 81.81 81.81 81.81 81.82 81.83 81.83 81.82 81.83 81.83 81.82 81.83 81.83 81.83 16.810526 195.200000 0.000000 16.804436 195.180977 0.000000 976052863.900000 nohost 0.000000
ODOM 17.854050 195.209698 0.000000 0.000000 0.000000 0.000000 976052864.000000 nohost 0.000000
FLASER 180 81.81 81.83 81.83 81.83 81.83 81.83 81.83 81.82 81.80 81.83 81.82 81.82 81.83 81.83 81.83 81.83 81.80 81.83 81.83 81.83 81.83 81.83 81.83 81.79 81.83 81.81 81.83 81.83 81.83 81.83 81.81 81.83 81.83 81.82 81.83 81.82 81.83 81.82 81.83 81.81 81.83 81.83 81.83 81.81 81.82 81.83 81.83 81.80 81.83 81.79 81.80 81.83 81.83 81.83 81.83 81.83 81.83 81.83 81.83 81.83 81.82 81.83 81.81 81.78 81.83 81.83 81.80 81.81 81.82 81.82 81.79 81.83 81.83 81.81 81.80 81.83 81.83 81.82 81.83 81.81 13.51 13.00 12.69 12.49 12.30 12.15 12.10 12.03 12.00 11.98 11.89 11.99 12.03 12.06 12.15 12.35 12.45 12.68 12.99 13.53 81.83 81.83 81.82 81.83 81.83 81.83 81.81 81.81 81.83 81.83 81.80 81.83 81.83 81.83 81.81 81.83 81.82 81.83 81.81 81.83 81.83 81.83 81.83 81.81 81.83 81.81 81.83 81.83 81.83 81.82 81.83 81.81 81.82 81.83 81.83 81.83 81.83 81.83 81.83 81.82 81.80 81.83 81.83 81.83 81.81 81.83 81.79 81.83 81.83 81.83 81.83 81.82 81.83 81.83 81.81 81.82 81.83 81.82 81.83 81.83 81.83 81.83 81.83 81.83 81.83 81.83 81.82 81.81 81.80 81.83 81.81 81.83 81.82 81.83 81.81 81.82 81.82 81.82 81.83 81.82 17.843363 195.200000 0.000000 17.854050 195.209698 0.000000 976052864.000000 nohost 0.000000
ODOM 18.887412 195.200565 0.000000 0.000000 0.000000 0.000000 976052864.100000 nohost 0.000000
FLASER 180 81.82 81.83 81.83 81.82 81.83 81.83 81.83 81.82 81.83 81.80 81.83 81.78 81.83 81.83 81.83 81.83 81.81 81.83 81.83 81.83 81.82 81.83 81.79 81.82 81.83 81.83 81.83 81.83 81.82 81.83 81.83 81.83 81.82 81.81 81.83 81.81 81.83 81.83 81.83 81.83 81.81 81.83 81.83 81.81 81.83 81.83 81.83 81.83 81.83 81.83 81.83 81.83 81.83 81.83 81.82 81.83 81.81 81.83 81.83 81.83 81.81 81.83 81.83 81.81 81.83 81.81 81.83 81.83 81.83 81.82 81.82 81.83 81.81 81.83 81.80 81.82 81.83 81.83 81.79 81.83 13.73 13.16 12.84 12.58 12.39 12.29 12.19 12.14 12.08 12.03 12.02 12.05 12.12 12.19 12.30 12.44 12.58 12.79 13.17 13.74 81.80 81.83 81.83 81.83 81.83 81.83 81.80 81.83 81.81 81.83 81.82 81.80 81.83 81.82 81.79 81.83 81.83 81.83 81.79 81.83 81.81 81.83 81.83 81.82 81.80 81.83 81.83 81.80 81.83 81.83 81.81 81.81 81.83 81.83 81.79 81.82 81.82 81.83 81.83 81.83 81.83 81.83 81.83 81.82 81.83 81.83 81.82 81.82 81.83 81.83 81.80 81.81 81.83 81.83 81.83 81.80 81.82 81.81 81.83 81.83 81.81 81.80 81.83 81.83 81.83 81.83 81.81 81.83 81.82 81.83 81.81 81.83 81.82 81.83 81.83 81.82 81.83 81.82 81.83 81.83 18.877824 195.200000 0.000000 18.887412 195.200565 0.000000 976052864.100000 nohost 0.000000
ODOM 19.942795 195.213575 0.000000 0.000000 0.000000 0.000000 976052864.200000 nohost 0.000000
FLASER 180 81.81 81.83 81.80 81.83 81.83 81.83 81.81 81.83 81.82 81.83 81.83 81.83 81.83 81.83 81.80 81.80 81.83 81.83 81.83 81.81 81.83 81.79 81.81 81.82 81.83 81.83 81.83 81.83 81.83 81.83 81.83 81.81 81.79 81.83 81.81 81.83 81.80 81.83 81.81 81.82 81.80 81.83 81.81 81.81 81.83 81.83 81.80 81.81 81.81 81.82 81.83 81.83 81.83 81.80 81.83 81.83 81.83 81.83 81.80 81.83 81.83 81.82 81.83 81.83 81.83 81.80 81.83 81.83 81.81 81.83 81.83 81.83 81.82 81.81 81.83 81.83 81.83 81.80 81.82 81.83 13.87 13.23 12.91 12.71 12.51 12.40 12.30 12.22 12.17 12.16 12.12 12.17 12.22 12.27 12.38 12.50 12.70 12.93 13.25 13.90 81.81 81.83 81.83 81.83 81.83 81.81 81.83 81.81 81.82 81.83 81.83 81.83 81.83 81.80 81.83 81.81 81.83 81.83 81.82 81.80 81.82 81.81 81.80 81.82 81.83 81.83 81.83 81.83 81.83 81.80 81.83 81.82 81.81 81.83 81.83 81.82 81.80 81.82 81.81 81.83 81.83 81.83 81.83 81.83 81.80 81.82 81.81 81.81 81.83 81.77 81.83 81.83 81.81 81.81 81.83 81.83 81.82 81.83 81.83 81.82 81.83 81.81 81.83 81.83 81.83 81.83 81.82 81.82 81.83 81.83 81.81 81.82 81.82 81.83 81.82 81.83 81.82 81.83 81.80 81.83 19.925052 195.200000 0.000000 19.942795 195.213575 0.000000 976052864.200000 nohost 0.000000
ODOM 20.957997 195.190549 0.000000 0.000000 0.000000 0.000000 976052864.300000 nohost 0.000000
FLASER 180 81.82 81.83 81.83 81.83 81.83 81.83 81.83 81.83 81.83 81.83 81.83 81.81 81.82 81.81 81.82 81.83 81.83 81.83 81.80 81.83 81.83 81.81 81.83 81.83 81.83 81.82 81.83 81.83 81.83 81.83 81.82 81.80 81.82 81.81 81.81 81.82 81.83 81.80 81.83 81.83 81.83 81.82 81.82 81.81 81.83 81.83 81.83 81.81 81.83 81.83 81.81 81.83 81.81 81.81 81.83 81.83 81.83 81.82 81.80 81.83 81.83 81.81 81.82 81.83 81.83 81.83 81.80 81.83 81.83 81.83 81.82 81.83 81.82 81.82 81.83 81.83 81.83 81.83 81.83 81.83 14.05 13.45 13.07 12.80 12.64 12.56 12.41 12.35 12.29 12.24 12.29 12.27 12.33 12.39 12.52 12.66 12.84 13.06 13.42 14.07 81.80 81.80 81.83 81.83 81.80 81.83 81.83 81.83 81.83 81.80 81.83 81.83 81.83 81.82 81.83 81.82 81.79 81.83 81.82 81.83 81.82 81.81 81.83 81.83 81.82 81.83 81.82 81.81 81.81 81.82 81.83 81.83 81.83 81.82 81.83 81.83 81.82 81.82 81.80 81.79 81.81 81.83 81.83 81.83 81.83 81.83 81.83 81.82 81.83 81.81 81.81 81.83 81.83 81.83 81.81 81.81 81.83 81.83 81.80 81.82 81.81 81.83 81.83 81.83 81.83 81.83 81.81 81.83 81.83 81.82 81.83 81.83 81.83 81.83 81.81 81.83 81.83 81.83 81.83 81.83 20.966582 195.200000 0.000000 20.957997 195.190549 0.000000 976052864.300000 nohost 0.000000
ODOM 22.006686 195.188536 0.000000 0.000000 0.000000 0.000000 976052864.400000 nohost 0.000000
FLASER 180 81.83 81.81 81.83 81.80 81.83 81.82 81.82 81.81 81.83 81.83 81.82 81.82 81.80 81.83 81.82 81.82 81.83 81.82 81.80 81.83 81.83 81.83 81.83 81.83 81.82 81.81 81.78 81.83 81.83 81.82 81.83 81.83 81.82 81.82 81.83 81.81 81.81 81.83 81.82 81.81 81.82 81.82 81.79 81.82 81.81 81.83 81.83 81.83 81.83 81.81 81.83 81.83 81.80 81.83 81.82 81.82 81.83 81.83 81.83 81.83 81.83 81.81 81.83 81.81 81.83 81.83 81.83 81.83 81.82 81.81 81.80 81.82 81.82 81.83 81.81 81.83 81.81 81.83 81.82 81.82 14.24 13.53 13.19 12.93 12.76 12.62 12.56 12.45 12.40 12.37 12.35 12.35 12.43 12.53 12.60 12.75 12.96 13.18 13.53 14.28 81.83 81.82 81.81 81.79 81.83 81.82 81.83 81.83 81.83 81.83 81.81 81.80 81.82 81.83 81.83 81.79 81.81 81.83 81.83 81.83 81.83 81.83 81.83 81.81 81.82 81.83 81.81 81.83 81.82 81.83 81.83 81.82 81.83 81.83 81.82 81.83 81.83 81.83 81.82 81.83 81.83 81.83 81.83 81.83 81.79 81.83 81.83 81.83 81.83 81.83 81.83 81.83 81.83 81.81 81.81 81.83 81.83 81.83 81.82 81.81 81.82 81.79 81.83 81.81 81.83 81.83 81.83 81.83 81.79 81.83 81.82 81.83 81.83 81.82 81.83 81.82 81.83 81.83 81.83 81.82 22.012207 195.200000 0.000000 22.006686 195.188536 0.000000 976052864.400000 nohost 0.000000
ODOM 23.070671 195.210789 0.000000 0.000000 0.000000 0.000000 976052864.500000 nohost 0.000000
FLASER 180 81.83 81.82 81.83 81.83 81.83 81.83 81.82 81.83 81.80 81.83 81.82 81.82 81.83 81.83 81.83 81.83 81.81 81.81 81.79 81.83 81.82 81.80 81.81 81.81 81.83 81.83 81.82 81.83 81.83 81.83 81.81 81.78 81.83 81.83 81.83 81.83 81.83 81.83 81.83 81.83 81.82 81.83 81.82 81.83 81.83 81.83 81.83 81.83 81.81 81.80 81.83 81.83 81.83 81.83 81.81 81.80 81.81 81.81 81.81 81.82 81.83 81.82 81.83 81.83 81.82 81.83 81.81 81.83 81.81 81.83 81.82 81.83 81.83 81.83 81.81 81.82 81.83 81.82 81.83 81.82 14.44 13.64 13.26 13.03 12.86 12.72 12.58 12.55 12.44 12.45 12.44 12.51 12.53 12.62 12.70 12.88 13.06 13.28 13.63 14.45 81.83 81.83 81.83 81.83 81.80 81.83 81.83 81.79 81.83 81.83 81.83 81.82 81.82 81.82 81.83 81.83 81.82 81.80 81.83 81.81 81.83 81.82 81.83 81.82 81.83 81.79 81.82 81.83 81.82 81.83 81.83 81.83 81.80 81.83 81.83 81.81 81.77 81.81 81.82 81.83 81.83 81.81 81.83 81.83 81.83 81.83 81.82 81.82 81.83 81.83 81.83 81.81 81.80 81.83 81.83 81.83 81.83 81.83 81.83 81.83 81.83 81.83 81.82 81.83 81.83 81.83 81.83 81.82 81.80 81.83 81.83 81.81 81.80 81.83 81.82 81.82 81.83 81.82 81.81 81.79 23.067566 195.200000 0.000000 23.070671 195.210789 0.000000 976052864.500000 nohost 0.000000
ODOM 24.117265 195.187917 0.000000 0.000000 0.000000 0.000000 976052864.600000 nohost 0.000000
FLASER 180 81.80 81.80 81.81 81.83 81.83 81.83 81.83 81.83 81.83 81.82 81.83 81.80 81.83 81.83 81.83 81.81 81.80 81.80 81.78 81.83 81.83 81.83 81.83 81.82 81.83 81.83 81.83 81.81 81.83 81.83 81.82 81.83 81.80 81.83 81.82 81.83 81.82 81.83 81.82 81.83 81.83 81.82 81.83 81.83 81.81 81.81 81.82 81.83 81.81 81.83 81.81 81.82 81.83 81.83 81.81 81.82 81.82 81.83 81.83 81.80 81.81 81.83 81.83 81.82 81.82 81.83 81.83 81.82 81.83 81.83 81.80 81.83 81.81 81.83 81.82 81.83 81.83 81.81 81.81 81.81 14.81 13.81 13.41 13.15 12.96 12.76 12.67 12.62 12.59 12.55 12.57 12.58 12.66 12.71 12.79 12.93 13.15 13.39 13.80 14.79 81.82 81.82 81.83 81.83 81.83 81.83 81.81 81.80 81.80 81.80 81.82 81.83 81.81 81.83 81.83 81.83 81.81 81.82 81.83 81.83 81.83 81.83 81.82 81.81 81.83 81.82 81.81 81.83 81.83 81.83 81.83 81.81 81.83 81.82 81.83 81.83 81.83 81.83 81.83 81.82 81.83 81.83 81.83 81.83 81.78 81.83 81.83 81.82 81.83 81.83 81.80 81.83 81.82 81.83 81.83 81.81 81.78 81.83 81.83 81.79 81.82 81.81 81.83 81.83 81.82 81.83 81.83 81.83 81.81 81.83 81.82 81.83 81.82 81.82 81.83 81.83 81.83 81.83 81.83 81.83 24.114483 195.200000 0.000000 24.117265 195.187917 0.000000 976052864.600000 nohost 0.000000
ODOM 25.192757 195.202692 0.000000 0.000000 0.000000 0.000000 976052864.700000 nohost 0.000000
FLASER 180 81.82 81.83 81.80 81.81 81.81 81.83 81.83 81.82 81.83 81.83 81.83 81.83 81.77 81.83 81.79 81.81 81.83 81.82 81.83 81.81 81.83 81.82 81.82 81.83 81.83 81.83 81.83 81.83 81.83 81.79 81.82 81.83 81.83 81.81 81.80 81.79 81.83 81.79 81.83 81.81 81.80 81.83 81.82 81.83 81.82 81.79 81.83 81.81 81.83 81.83 81.83 81.83 81.83 81.83 81.83 81.83 81.81 81.82 81.82 81.83 81.83 81.83 81.83 81.82 81.83 81.82 81.80 81.83 81.83 81.82 81.83 81.80 81.82 81.81 81.83 81.81 81.83 81.82 81.83 81.83 81.82 13.90 13.51 13.25 13.06 12.93 12.82 12.72 12.66 12.61 12.60 12.68 12.75 12.79 12.88 13.04 13.21 13.47 13.87 81.83 81.83 81.83 81.83 81.81 81.83 81.83 81.83 81.83 81.83 81.83 81.83 81.82 81.83 81.82 81.83 81.83 81.83 81.83 81.83 81.81 81.81 81.82 81.83 81.82 81.83 81.83 81.80 81.80 81.83 81.83 81.81 81.81 81.83 81.83 81.83 81.83 81.83 81.83 81.83 81.83 81.83 81.83 81.80 81.83 81.83 81.81 81.83 81.80 81.83 81.83 81.80 81.81 81.83 81.80 81.83 81.83 81.83 81.78 81.76 81.83 81.82 81.81 81.83 81.81 81.83 81.82 81.83 81.81 81.83 81.81 81.83 81.83 81.83 81.83 81.83 81.83 81.82 81.83 81.83 81.78 25.174468 195.200000 0.000000 25.192757 195.202692 0.000000 976052864.700000 nohost 0.000000
ODOM 26.225499 195.207163 0.002222 0.000000 0.000000 0.000000 976052864.800000 nohost 0.000000
FLASER 180 81.83 81.83 81.83 81.83 81.80 81.83 81.83 81.83 81.77 81.82 81.83 81.80 81.83 81.80 81.83 81.82 81.83 81.80 81.82 81.83 81.83 81.83 81.83 81.80 81.83 81.83 81.83 81.80 81.83 81.82 81.83 81.82 81.83 81.83 81.81 81.82 81.83 81.81 81.83 81.83 81.83 81.83 81.83 81.83 81.83 81.81 81.83 81.83 81.83 81.83 81.83 81.83 81.82 81.79 81.82 81.82 81.79 81.83 81.83 81.83 81.82 81.82 81.82 81.80 81.83 81.83 81.83 81.83 81.83 81.83 81.83 81.82 81.83 81.82 81.83 81.83 81.83 81.83 81.83 81.83 14.76 13.91 13.54 13.31 13.12 12.96 12.85 12.80 12.80 12.73 12.72 12.75 12.82 12.90 13.02 13.18 13.36 13.67 14.10 81.83 81.83 81.80 81.82 81.83 81.82 81.83 81.83 81.81 81.83 81.83 81.83 81.83 81.81 81.83 81.81 81.82 81.83 81.81 81.81 81.79 81.83 81.83 81.81 81.83 81.83 81.81 81.83 81.81 81.83 81.83 81.83 81.81 81.83 81.81 81.81 81.83 81.83 81.83 81.83 81.83 81.83 81.82 81.83 81.83 81.83 81.80 81.80 81.83 81.83 81.81 81.83 81.81 81.83 81.82 81.83 81.83 81.80 81.82 81.83 81.82 81.83 81.83 81.83 81.79 81.82 81.82 81.81 81.83 81.80 81.77 81.81 81.83 81.83 81.83 81.83 81.83 81.81 81.83 81.81 81.81 26.230570 195.210000 0.002222 26.225499 195.207163 0.002222 976052864.800000 nohost 0.000000
ODOM 27.291486 195.230854 0.006146 0.000000 0.000000 0.000000 976052864.900000 nohost 0.000000
FLASER 180 81.82 81.83 81.81 81.82 81.81 81.82 81.83 81.83 81.80 81.83 81.82 81.83 81.83 81.83 81.83 81.83 81.83 81.83 81.83 81.80 81.83 81.83 81.81 81.81 81.82 81.83 81.80 81.83 81.83 81.83 81.82 81.83 81.81 81.83 81.83 81.83 81.82 81.82 81.79 81.83 81.81 81.81 81.82 81.81 81.83 81.83 81.83 81.82 81.79 81.83 81.83 81.82 81.83 81.83 81.83 81.83 81.83 81.83 81.81 81.81 81.83 81.83 81.81 81.80 81.77 81.83 81.83 81.83 81.83 81.83 81.83 81.83 81.83 81.82 81.82 81.81 81.83 81.83 81.78 81.83 14.54 13.90 13.54 13.35 13.17 13.05 12.96 12.88 12.83 12.83 12.81 12.85 12.96 13.00 13.16 13.34 13.54 13.88 14.45 81.79 81.83 81.83 81.83 81.80 81.83 81.82 81.83 81.83 81.83 81.83 81.80 81.83 81.81 81.83 81.83 81.81 81.83 81.80 81.83 81.83 81.83 81.83 81.83 81.83 81.81 81.81 81.81 81.80 81.83 81.83 81.83 81.83 81.81 81.83 81.82 81.83 81.83 81.81 81.82 81.81 81.83 81.83 81.81 81.80 81.82 81.82 81.83 81.83 81.80 81.83 81.83 81.83 81.79 81.81 81.79 81.83 81.83 81.83 81.83 81.83 81.79 81.82 81.83 81.83 81.82 81.83 81.83 81.83 81.83 81.83 81.83 81.83 81.83 81.82 81.82 81.82 81.83 81.82 81.81 81.81 27.285043 195.230000 0.006146 27.291486 195.230854 0.006146 976052864.900000 nohost 0.000000
ODOM 28.364795 195.261573 0.011362 0.000000 0.000000 0.000000 976052865.000000 nohost 0.000000
FLASER 180 81.81 81.82 81.80 81.83 81.83 81.83 81.82 81.82 81.82 81.83 81.83 81.82 81.82 81.83 81.81 81.81 81.83 81.82 81.83 81.82 81.83 81.83 81.81 81.83 81.81 81.79 81.83 81.82 81.79 81.76 81.83 81.83 81.81 81.83 81.83 81.83 81.83 81.81 81.83 81.80 81.83 81.83 81.83 81.83 81.83 81.83 81.83 81.83 81.82 81.83 81.83 81.79 81.83 81.82 81.82 81.83 81.83 81.83 81.83 81.83 81.83 81.83 81.83 81.83 81.83 81.81 81.82 81.83 81.81 81.83 81.80 81.80 81.83 81.83 81.83 81.81 81.81 81.83 81.83 81.83 14.30 13.87 13.58 13.33 13.17 13.08 13.01 12.96 12.89 12.87 12.93 12.99 13.01 13.19 13.31 13.53 13.76 14.15 81.79 81.83 81.83 81.83 81.83 81.82 81.83 81.82 81.82 81.81 81.80 81.81 81.83 81.81 81.82 81.82 81.83 81.83 81.83 81.83 81.81 81.81 81.81 81.83 81.80 81.83 81.82 81.77 81.83 81.83 81.83 81.81 81.83 81.81 81.83 81.82 81.81 81.83 81.81 81.83 81.83 81.83 81.83 81.82 81.83 81.83 81.82 81.83 81.83 81.82 81.81 81.83 81.83 81.82 81.83 81.80 81.83 81.83 81.82 81.81 81.83 81.80 81.83 81.81 81.80 81.83 81.83 81.83 81.82 81.83 81.83 81.80 81.81 81.83 81.83 81.83 81.81 81.83 81.80 81.82 81.83 81.82 28.347046 195.260000 0.011362 28.364795 195.261573 0.011362 976052865.000000 nohost 0.000000
ODOM 29.394908 195.290400 0.017582 0.000000 0.000000 0.000000 976052865.100000 nohost 0.000000
FLASER 180 81.83 81.81 81.83 81.80 81.82 81.83 81.83 81.80 81.83 81.83 81.83 81.83 81.83 81.83 81.81 81.82 81.83 81.83 81.83 81.83 81.83 81.83 81.83 81.83 81.83 81.82 81.83 81.83 81.83 81.83 81.83 81.83 81.79 81.83 81.79 81.83 81.83 81.83 81.79 81.83 81.81 81.81 81.83 81.83 81.81 81.83 81.83 81.80 81.82 81.83 81.83 81.81 81.83 81.82 81.82 81.83 81.81 81.83 81.83 81.81 81.83 81.83 81.82 81.81 81.82 81.81 81.83 81.82 81.81 81.83 81.79 81.82 81.81 81.83 81.82 81.83 81.83 81.83 81.83 14.93 14.18 13.80 13.56 13.37 13.24 13.15 13.05 13.04 13.02 13.03 13.06 13.11 13.22 13.31 13.49 13.71 14.06 14.64 81.83 81.83 81.83 81.83 81.83 81.82 81.81 81.83 81.83 81.83 81.83 81.82 81.81 81.81 81.82 81.81 81.83 81.83 81.83 81.79 81.83 81.81 81.83 81.83 81.83 81.83 81.81 81.83 81.83 81.83 81.83 81.82 81.80 81.82 81.82 81.81 81.83 81.83 81.83 81.83 81.83 81.82 81.80 81.83 81.83 81.83 81.83 81.81 81.83 81.82 81.83 81.83 81.83 81.83 81.80 81.83 81.83 81.81 81.83 81.83 81.83 81.83 81.83 81.83 81.83 81.83 81.83 81.83 81.83 81.82 81.83 81.83 81.80 81.82 81.83 81.83 81.82 81.83 81.83 81.83 81.81 81.81 29.403977 195.300000 0.017582 29.394908 195.290400 0.017582 976052865.100000 nohost 0.000000
ODOM 30.501811 195.351104 0.024516 0.000000 0.000000 0.000000 976052865.200000 nohost 0.000000
FLASER 180 81.81 81.83 81.82 81.83 81.79 81.83 81.81 81.83 81.83 81.80 81.80 81.83 81.83 81.83 81.81 81.81 81.83 81.79 81.81 81.82 81.81 81.83 81.82 81.83 81.82 81.82 81.80 81.83 81.83 81.83 81.83 81.80 81.81 81.81 81.81 81.83 81.83 81.83 81.82 81.80 81.83 81.83 81.83 81.82 81.83 81.81 81.82 81.83 81.82 81.83 81.81 81.82 81.83 81.83 81.83 81.83 81.79 81.81 81.83 81.82 81.83 81.80 81.83 81.81 81.80 81.83 81.82 81.83 81.81 81.83 81.83 81.83 81.82 81.83 81.83 81.83 81.83 81.83 81.82 14.52 14.03 13.75 13.51 13.37 13.26 13.20 13.11 13.09 13.07 13.10 13.19 13.26 13.35 13.49 13.72 14.01 14.49 81.83 81.81 81.81 81.83 81.83 81.83 81.82 81.83 81.83 81.81 81.83 81.83 81.83 81.83 81.81 81.83 81.81 81.81 81.83 81.81 81.80 81.83 81.83 81.82 81.81 81.83 81.80 81.83 81.82 81.83 81.83 81.83 81.83 81.83 81.83 81.81 81.83 81.83 81.83 81.83 81.83 81.83 81.83 81.83 81.81 81.83 81.83 81.83 81.83 81.83 81.83 81.83 81.83 81.81 81.78 81.83 81.83 81.83 81.82 81.83 81.83 81.83 81.79 81.81 81.83 81.83 81.83 81.80 81.83 81.83 81.83 81.83 81.83 81.83 81.83 81.81 81.81 81.81 81.82 81.83 81.83 81.83 81.82 30.472786 195.350000 0.024516 30.501811 195.351104 0.024516 976052865.200000 nohost 0.000000
ODOM 31.542926 195.397752 0.032004 0.000000 0.000000 0.000000 976052865.300000 nohost 0.000000
FLASER 180 81.83 81.81 81.81 81.80 81.82 81.83 81.82 81.82 81.81 81.82 81.79 81.81 81.83 81.81 81.80 81.82 81.83 81.83 81.83 81.83 81.83 81.83 81.82 81.83 81.83 81.83 81.81 81.81 81.83 81.83 81.83 81.83 81.78 81.83 81.80 81.82 81.82 81.83 81.82 81.83 81.83 81.82 81.79 81.81 81.83 81.83 81.80 81.83 81.83 81.83 81.82 81.80 81.83 81.83 81.82 81.83 81.82 81.83 81.80 81.81 81.83 81.83 81.82 81.83 81.83 81.83 81.83 81.79 81.80 81.83 81.83 81.83 81.82 81.81 81.83 81.83 81.83 81.83 14.94 14.28 13.93 13.65 13.50 13.39 13.26 13.21 13.21 13.15 13.18 13.21 13.31 13.39 13.55 13.75 13.93 14.33 15.24 81.83 81.79 81.83 81.83 81.83 81.83 81.83 81.83 81.83 81.82 81.83 81.81 81.79 81.82 81.83 81.83 81.83 81.79 81.83 81.82 81.82 81.83 81.83 81.82 81.83 81.78 81.83 81.80 81.83 81.81 81.82 81.83 81.83 81.83 81.83 81.83 81.83 81.80 81.83 81.80 81.83 81.83 81.83 81.82 81.82 81.82 81.81 81.83 81.83 81.83 81.83 81.81 81.83 81.83 81.83 81.82 81.82 81.82 81.80 81.83 81.82 81.83 81.83 81.81 81.83 81.83 81.83 81.83 81.80 81.82 81.83 81.83 81.81 81.82 81.82 81.83 81.83 81.82 81.83 81.83 81.83 81.83 81.81 31.545031 195.410000 0.032004 31.542926 195.397752 0.032004 976052865.300000 nohost 0.000000
ODOM 32.620546 195.486033 0.039975 0.000000 0.000000 0.000000 976052865.400000 nohost 0.000000
FLASER 180 81.82 81.79 81.83 81.83 81.83 81.83 81.82 81.83 81.83 81.80 81.82 81.83 81.83 81.83 81.83 81.83 81.79 81.83 81.83 81.83 81.81 81.83 81.83 81.82 81.83 81.82 81.83 81.83 81.80 81.80 81.81 81.82 81.83 81.83 81.83 81.83 81.82 81.83 81.83 81.83 81.81 81.83 81.83 81.80 81.83 81.83 81.83 81.80 81.83 81.83 81.83 81.83 81.83 81.80 81.83 81.80 81.83 81.81 81.83 81.80 81.83 81.82 81.83 81.82 81.83 81.81 81.83 81.83 81.83 81.83 81.83 81.83 81.79 81.83 81.83 81.82 81.82 81.83 14.54 14.13 13.81 13.62 13.49 13.37 13.31 13.26 13.29 13.25 13.27 13.36 13.45 13.57 13.74 13.98 14.31 14.94 81.80 81.83 81.83 81.80 81.83 81.83 81.83 81.83 81.82 81.83 81.83 81.82 81.83 81.83 81.81 81.82 81.83 81.83 81.83 81.83 81.83 81.83 81.83 81.83 81.83 81.81 81.82 81.83 81.79 81.83 81.83 81.82 81.83 81.83 81.83 81.82 81.83 81.83 81.83 81.82 81.79 81.82 81.83 81.83 81.75 81.83 81.83 81.82 81.81 81.83 81.83 81.81 81.80 81.83 81.82 81.83 81.83 81.83 81.83 81.83 81.83 81.81 81.83 81.83 81.83 81.83 81.83 81.83 81.82 81.81 81.82 81.81 81.83 81.83 81.80 81.83 81.83 81.81 81.83 81.83 81.81 81.82 81.81 81.82 32.610514 195.480000 0.039975 32.620546 195.486033 0.039975 976052865.400000 nohost 0.000000
ODOM 33.677836 195.558671 0.048184 0.000000 0.000000 0.000000 976052865.500000 nohost 0.000000
FLASER 180 81.83 81.82 81.83 81.83 81.83 81.83 81.81 81.83 81.83 81.83 81.78 81.83 81.83 81.83 81.82 81.82 81.82 81.81 81.81 81.83 81.83 81.83 81.83 81.83 81.82 81.83 81.83 81.83 81.83 81.83 81.81 81.82 81.83 81.83 81.83 81.83 81.81 81.83 81.81 81.82 81.81 81.83 81.81 81.83 81.81 81.83 81.81 81.80 81.83 81.83 81.83 81.81 81.79 81.83 81.83 81.83 81.82 81.80 81.83 81.82 81.80 81.83 81.79 81.82 81.83 81.83 81.83 81.82 81.80 81.83 81.82 81.83 81.82 81.83 81.81 81.82 81.83 14.76 14.24 13.98 13.78 13.59 13.49 13.40 13.35 13.35 13.29 13.30 13.41 13.50 13.63 13.74 13.98 14.27 14.86 81.81 81.83 81.83 81.82 81.82 81.81 81.80 81.81 81.82 81.83 81.82 81.83 81.82 81.81 81.83 81.82 81.83 81.82 81.83 81.80 81.83 81.81 81.83 81.82 81.83 81.81 81.83 81.83 81.82 81.81 81.82 81.82 81.83 81.83 81.83 81.83 81.83 81.80 81.82 81.83 81.83 81.83 81.83 81.83 81.83 81.80 81.83 81.83 81.83 81.83 81.83 81.83 81.83 81.82 81.83 81.83 81.83 81.83 81.83 81.83 81.83 81.83 81.83 81.83 81.83 81.83 81.83 81.83 81.83 81.81 81.83 81.80 81.82 81.83 81.82 81.83 81.83 81.83 81.80 81.83 81.83 81.83 81.83 81.83 81.83 33.686351 195.560000 0.048184 33.677836 195.558671 0.048184 976052865.500000 nohost 0.000000
ODOM 34.754599 195.640935 0.056648 0.000000 0.000000 0.000000 976052865.600000 nohost 0.000000
FLASER 180 81.83 81.82 81.83 81.81 81.83 81.82 81.83 81.83 81.83 81.81 81.83 81.80 81.81 81.83 81.82 81.81 81.81 81.81 81.80 81.83 81.80 81.83 81.82 81.81 81.83 81.82 81.83 81.83 81.83 81.82 81.83 81.83 81.79 81.83 81.83 81.83 81.79 81.83 81.83 81.81 81.82 81.81 81.80 81.83 81.83 81.81 81.83 81.81 81.83 81.82 81.81 81.83 81.83 81.82 81.79 81.83 81.83 81.82 81.83 81.83 81.83 81.81 81.81 81.83 81.83 81.83 81.82 81.83 81.82 81.82 81.83 81.82 81.83 81.81 81.82 81.83 15.02 14.44 14.08 13.87 13.71 13.57 13.48 13.41 13.38 13.37 13.42 13.44 13.59 13.67 13.83 13.99 14.32 14.77 81.83 81.83 81.83 81.82 81.82 81.79 81.81 81.83 81.83 81.83 81.83 81.82 81.82 81.82 81.83 81.81 81.78 81.82 81.83 81.80 81.83 81.83 81.83 81.82 81.83 81.82 81.83 81.83 81.83 81.83 81.83 81.83 81.83 81.81 81.81 81.83 81.81 81.83 81.81 81.83 81.82 81.83 81.83 81.83 81.83 81.79 81.83 81.83 81.83 81.80 81.83 81.81 81.83 81.82 81.83 81.82 81.83 81.81 81.83 81.83 81.83 81.83 81.83 81.82 81.83 81.83 81.83 81.78 81.77 81.81 81.81 81.79 81.81 81.81 81.83 81.83 81.82 81.82 81.81 81.83 81.83 81.82 81.83 81.83 81.83 81.82 34.761992 195.650000 0.056648 34.754599 195.640935 0.056648 976052865.600000 nohost 0.000000
ODOM 35.826469 195.746519 0.065329 0.000000 0.000000 0.000000 976052865.700000 nohost 0.000000
FLASER 180 81.83 81.83 81.83 81.80 81.82 81.83 81.83 81.78 81.83 81.83 81.81 81.83 81.83 81.80 81.83 81.83 81.83 81.82 81.81 81.82 81.83 81.83 81.83 81.83 81.81 81.83 81.83 81.83 81.83 81.83 81.83 81.83 81.83 81.83 81.83 81.83 81.83 81.80 81.82 81.79 81.83 81.82 81.82 81.82 81.81 81.83 81.83 81.78 81.82 81.83 81.83 81.83 81.83 81.83 81.82 81.83 81.82 81.81 81.82 81.83 81.83 81.81 81.81 81.83 81.83 81.83 81.83 81.83 81.83 81.82 81.83 81.83 81.82 81.78 81.83 15.30 14.57 14.21 13.96 13.78 13.66 13.57 13.52 13.46 13.45 13.46 13.55 13.58 13.66 13.85 14.05 14.34 14.79 81.83 81.80 81.83 81.83 81.80 81.80 81.81 81.82 81.83 81.83 81.83 81.83 81.81 81.82 81.83 81.82 81.83 81.83 81.83 81.82 81.83 81.82 81.83 81.81 81.83 81.83 81.83 81.83 81.81 81.83 81.81 81.82 81.81 81.82 81.83 81.83 81.83 81.83 81.80 81.82 81.83 81.82 81.83 81.81 81.83 81.83 81.83 81.82 81.81 81.83 81.83 81.81 81.83 81.83 81.83 81.82 81.81 81.81 81.83 81.81 81.81 81.83 81.82 81.80 81.83 81.83 81.81 81.83 81.83 81.82 81.83 81.83 81.82 81.83 81.81 81.81 81.83 81.83 81.82 81.79 81.82 81.82 81.82 81.83 81.82 81.83 81.81 35.835413 195.750000 0.065329 35.826469 195.746519 0.065329 976052865.700000 nohost 0.000000
ODOM 36.929715 195.851357 0.071810 0.000000 0.000000 0.000000 976052865.800000 nohost 0.000000
FLASER 180 81.81 81.82 81.83 81.82 81.80 81.81 81.83 81.81 81.81 81.81 81.83 81.78 81.80 81.83 81.83 81.81 81.80 81.82 81.83 81.82 81.82 81.83 81.83 81.83 81.83 81.83 81.82 81.80 81.82 81.83 81.83 81.82 81.81 81.81 81.78 81.81 81.83 81.78 81.83 81.83 81.83 81.83 81.82 81.81 81.79 81.83 81.83 81.82 81.82 81.83 81.81 81.83 81.83 81.82 81.82 81.83 81.83 81.80 81.83 81.82 81.83 81.83 81.83 81.83 81.81 81.82 81.83 81.83 81.83 81.83 81.83 81.83 81.83 81.83 81.83 14.81 14.40 14.10 13.89 13.75 13.63 13.59 13.56 13.54 13.55 13.56 13.65 13.71 13.90 14.06 14.32 14.74 15.69 81.83 81.81 81.83 81.83 81.83 81.83 81.80 81.83 81.83 81.83 81.82 81.83 81.80 81.83 81.82 81.83 81.82 81.79 81.83 81.83 81.80 81.83 81.80 81.83 81.83 81.80 81.82 81.81 81.80 81.81 81.80 81.83 81.83 81.82 81.83 81.83 81.81 81.82 81.82 81.82 81.81 81.82 81.83 81.79 81.80 81.80 81.83 81.79 81.82 81.82 81.82 81.83 81.82 81.83 81.81 81.83 81.83 81.83 81.83 81.82 81.82 81.83 81.83 81.80 81.83 81.83 81.81 81.83 81.83 81.82 81.83 81.80 81.81 81.83 81.80 81.81 81.80 81.83 81.83 81.83 81.83 81.81 81.83 81.81 81.82 81.83 81.83 36.917232 195.850000 0.071810 36.929715 195.851357 0.071810 976052865.800000 nohost 0.000000
ODOM 37.991197 195.959531 0.076709 0.000000 0.000000 0.000000 976052865.900000 nohost 0.000000
FLASER 180 81.82 81.82 81.81 81.83 81.83 81.78 81.83 81.82 81.82 81.82 81.83 81.83 81.83 81.83 81.82 81.83 81.81 81.81 81.83 81.82 81.83 81.78 81.80 81.83 81.83 81.81 81.81 81.83 81.83 81.83 81.83 81.83 81.83 81.83 81.81 81.82 81.83 81.82 81.83 81.83 81.83 81.83 81.81 81.78 81.83 81.83 81.82 81.83 81.83 81.83 81.83 81.82 81.83 81.83 81.81 81.83 81.83 81.82 81.81 81.82 81.82 81.83 81.82 81.83 81.81 81.83 81.83 81.83 81.81 81.83 81.83 81.82 81.82 81.83 15.18 14.61 14.30 14.07 13.87 13.78 13.69 13.64 13.57 13.60 13.62 13.69 13.74 13.93 14.06 14.28 14.62 15.21 81.82 81.83 81.81 81.83 81.83 81.83 81.81 81.81 81.81 81.83 81.80 81.83 81.83 81.83 81.81 81.83 81.83 81.83 81.83 81.83 81.83 81.83 81.83 81.83 81.81 81.83 81.81 81.83 81.83 81.83 81.83 81.81 81.83 81.82 81.81 81.81 81.80 81.82 81.82 81.81 81.81 81.83 81.83 81.83 81.83 81.80 81.83 81.83 81.83 81.82 81.82 81.83 81.83 81.81 81.81 81.83 81.81 81.82 81.81 81.82 81.83 81.83 81.79 81.83 81.83 81.83 81.81 81.83 81.83 81.83 81.83 81.82 81.83 81.79 81.82 81.82 81.83 81.83 81.82 81.83 81.83 81.83 81.82 81.83 81.82 81.81 81.83 81.83 38.000118 195.950000 0.076709 37.991197 195.959531 0.076709 976052865.900000 nohost 0.000000
ODOM 39.095535 196.047357 0.080264 0.000000 0.000000 0.000000 976052866.000000 nohost 0.000000
FLASER 180 81.81 81.83 81.83 81.83 81.81 81.83 81.83 81.82 81.83 81.83 81.82 81.83 81.83 81.83 81.83 81.83 81.83 81.82 81.80 81.82 81.83 81.83 81.83 81.82 81.83 81.83 81.78 81.83 81.83 81.83 81.83 81.80 81.82 81.82 81.81 81.81 81.82 81.83 81.83 81.83 81.83 81.83 81.80 81.82 81.81 81.83 81.83 81.83 81.83 81.83 81.78 81.80 81.83 81.83 81.80 81.81 81.82 81.81 81.82 81.80 81.82 81.82 81.83 81.83 81.83 81.81 81.82 81.83 81.83 81.79 81.83 81.83 81.81 81.80 14.90 14.46 14.27 14.02 13.90 13.77 13.70 13.68 13.61 13.69 13.73 13.80 13.90 14.05 14.23 14.56 14.97 81.82 81.81 81.83 81.83 81.79 81.82 81.83 81.83 81.79 81.79 81.82 81.83 81.83 81.83 81.83 81.83 81.78 81.80 81.82 81.83 81.80 81.83 81.83 81.83 81.81 81.83 81.81 81.82 81.83 81.83 81.80 81.82 81.83 81.83 81.83 81.82 81.83 81.83 81.83 81.83 81.83 81.83 81.83 81.83 81.83 81.81 81.83 81.81 81.79 81.83 81.83 81.83 81.78 81.83 81.82 81.83 81.83 81.83 81.82 81.83 81.83 81.83 81.83 81.83 81.83 81.82 81.82 81.80 81.83 81.82 81.83 81.82 81.83 81.83 81.83 81.83 81.82 81.82 81.83 81.82 81.83 81.83 81.83 81.83 81.79 81.83 81.83 81.83 81.82 39.092421 196.050000 0.080264 39.095535 196.047357 0.080264 976052866.000000 nohost 0.000000
ODOM 40.178137 196.157359 0.082998 0.000000 0.000000 0.000000 976052866.100000 nohost 0.000000
FLASER 180 81.83 81.83 81.83 81.83 81.83 81.83 81.83 81.82 81.83 81.79 81.83 81.80 81.83 81.83 81.77 81.81 81.83 81.83 81.80 81.83 81.83 81.83 81.82 81.83 81.83 81.83 81.82 81.83 81.82 81.82 81.81 81.83 81.79 81.80 81.83 81.83 81.83 81.83 81.83 81.82 81.83 81.83 81.83 81.83 81.81 81.83 81.83 81.83 81.83 81.82 81.82 81.82 81.81 81.83 81.82 81.82 81.83 81.83 81.81 81.83 81.83 81.83 81.83 81.81 81.83 81.82 81.83 81.81 81.82 81.83 81.83 81.83 81.81 15.32 14.76 14.41 14.16 13.99 13.88 13.80 13.74 13.69 13.70 13.74 13.82 13.90 14.06 14.20 14.43 14.80 15.48 81.83 81.83 81.83 81.82 81.83 81.83 81.83 81.83 81.83 81.83 81.80 81.80 81.83 81.81 81.83 81.81 81.83 81.82 81.83 81.82 81.82 81.83 81.83 81.83 81.83 81.83 81.83 81.83 81.83 81.82 81.83 81.83 81.82 81.83 81.80 81.82 81.83 81.82 81.83 81.83 81.83 81.82 81.80 81.83 81.80 81.83 81.81 81.81 81.82 81.81 81.77 81.83 81.81 81.82 81.83 81.83 81.83 81.79 81.81 81.83 81.83 81.80 81.81 81.83 81.83 81.81 81.83 81.83 81.83 81.82 81.83 81.83 81.81 81.81 81.83 81.83 81.82 81.83 81.83 81.83 81.83 81.83 81.82 81.83 81.83 81.83 81.83 81.82 81.83 40.182226 196.150000 0.082998 40.178137 196.157359 0.082998 976052866.100000 nohost 0.000000
ODOM 41.273794 196.248560 0.085054 0.000000 0.000000 0.000000 976052866.200000 nohost 0.000000
FLASER 180 81.83 81.82 81.80 81.81 81.83 81.83 81.82 81.81 81.83 81.80 81.83 81.83 81.81 81.83 81.83 81.80 81.83 81.83 81.81 81.83 81.83 81.82 81.83 81.83 81.83 81.83 81.82 81.83 81.83 81.83 81.83 81.80 81.83 81.82 81.82 81.83 81.81 81.83 81.76 81.83 81.82 81.81 81.82 81.81 81.81 81.83 81.82 81.83 81.80 81.81 81.83 81.83 81.82 81.81 81.83 81.81 81.81 81.79 81.81 81.83 81.83 81.81 81.83 81.83 81.82 81.83 81.83 81.81 81.83 81.82 81.81 81.81 81.82 15.08 14.64 14.38 14.22 14.02 13.93 13.85 13.81 13.74 13.80 13.83 13.91 13.99 14.17 14.37 14.64 15.10 81.83 81.83 81.83 81.83 81.83 81.83 81.80 81.82 81.83 81.83 81.83 81.83 81.83 81.83 81.81 81.82 81.83 81.83 81.82 81.81 81.82 81.82 81.82 81.81 81.80 81.83 81.82 81.81 81.83 81.83 81.81 81.82 81.83 81.81 81.83 81.83 81.83 81.82 81.83 81.81 81.82 81.83 81.82 81.83 81.82 81.83 81.83 81.83 81.82 81.83 81.83 81.83 81.83 81.83 81.83 81.83 81.81 81.80 81.83 81.83 81.83 81.81 81.83 81.83 81.83 81.83 81.81 81.83 81.83 81.83 81.81 81.83 81.83 81.83 81.82 81.81 81.81 81.82 81.83 81.81 81.81 81.83 81.83 81.83 81.83 81.83 81.83 81.83 81.81 81.83 41.272693 196.250000 0.085054 41.273794 196.248560 0.085054 976052866.200000 nohost 0.000000
ODOM 42.372873 196.362414 0.086636 0.000000 0.000000 0.000000 976052866.300000 nohost 0.000000
FLASER 180 81.81 81.81 81.82 81.83 81.83 81.83 81.83 81.83 81.83 81.83 81.81 81.83 81.83 81.83 81.83 81.83 81.83 81.83 81.83 81.82 81.83 81.83 81.83 81.82 81.81 81.83 81.82 81.83 81.83 81.82 81.79 81.80 81.81 81.79 81.83 81.81 81.83 81.83 81.83 81.83 81.83 81.82 81.83 81.83 81.83 81.81 81.82 81.81 81.83 81.83 81.82 81.82 81.83 81.83 81.83 81.83 81.80 81.83 81.81 81.79 81.79 81.81 81.82 81.83 81.82 81.83 81.81 81.82 81.83 81.83 81.81 81.80 15.67 14.94 14.61 14.30 14.18 14.07 13.94 13.87 13.87 13.87 13.90 13.94 14.01 14.12 14.34 14.55 14.90 15.52 81.81 81.83 81.82 81.82 81.83 81.83 81.81 81.82 81.81 81.83 81.82 81.83 81.83 81.79 81.83 81.83 81.80 81.81 81.81 81.83 81.83 81.83 81.83 81.83 81.83 81.82 81.83 81.83 81.79 81.83 81.83 81.83 81.82 81.83 81.83 81.82 81.81 81.82 81.83 81.79 81.83 81.83 81.83 81.83 81.83 81.83 81.83 81.83 81.82 81.81 81.83 81.81 81.83 81.83 81.81 81.83 81.83 81.83 81.82 81.83 81.82 81.82 81.81 81.83 81.83 81.81 81.83 81.82 81.81 81.82 81.83 81.83 81.83 81.83 81.82 81.83 81.83 81.83 81.83 81.81 81.82 81.83 81.83 81.82 81.83 81.83 81.82 81.80 81.83 81.83 42.361799 196.350000 0.086636 42.372873 196.362414 0.086636 976052866.300000 nohost 0.000000
ODOM 43.471552 196.454518 0.087825 0.000000 0.000000 0.000000 976052866.400000 nohost 0.000000
FLASER 180 81.83 81.83 81.83 81.80 81.80 81.83 81.82 81.83 81.83 81.83 81.83 81.83 81.83 81.83 81.83 81.83 81.82 81.82 81.83 81.83 81.83 81.81 81.81 81.82 81.83 81.83 81.79 81.79 81.81 81.81 81.83 81.83 81.82 81.83 81.82 81.81 81.82 81.80 81.83 81.78 81.83 81.79 81.83 81.81 81.82 81.83 81.83 81.83 81.81 81.83 81.83 81.81 81.80 81.81 81.81 81.83 81.83 81.81 81.83 81.83 81.81 81.83 81.82 81.83 81.83 81.81 81.81 81.83 81.83 81.82 81.83 81.82 15.38 14.87 14.61 14.34 14.17 14.08 13.97 13.95 13.90 13.92 13.96 14.06 14.14 14.29 14.52 14.77 15.19 81.83 81.83 81.81 81.83 81.83 81.83 81.83 81.83 81.83 81.83 81.83 81.82 81.83 81.83 81.78 81.83 81.83 81.82 81.79 81.83 81.81 81.83 81.83 81.83 81.81 81.82 81.83 81.82 81.81 81.83 81.83 81.83 81.82 81.83 81.83 81.83 81.82 81.82 81.81 81.82 81.83 81.83 81.78 81.83 81.83 81.83 81.80 81.83 81.83 81.79 81.82 81.83 81.80 81.83 81.83 81.83 81.83 81.83 81.81 81.81 81.79 81.83 81.83 81.83 81.82 81.83 81.83 81.81 81.81 81.83 81.80 81.83 81.82 81.83 81.83 81.82 81.83 81.79 81.83 81.81 81.82 81.83 81.83 81.78 81.81 81.83 81.81 81.82 81.83 81.83 81.83 43.451338 196.450000 0.087825 43.471552 196.454518 0.087825 976052866.400000 nohost 0.000000
ODOM 44.536568 196.544171 0.088649 0.000000 0.000000 0.000000 976052866.500000 nohost 0.000000
FLASER 180 81.82 81.82 81.83 81.83 81.83 81.83 81.83 81.82 81.80 81.80 81.82 81.83 81.82 81.83 81.80 81.83 81.83 81.83 81.83 81.83 81.83 81.83 81.82 81.83 81.83 81.83 81.83 81.81 81.83 81.83 81.82 81.82 81.82 81.82 81.81 81.83 81.82 81.83 81.83 81.83 81.81 81.83 81.83 81.83 81.83 81.83 81.83 81.82 81.83 81.83 81.81 81.83 81.83 81.82 81.83 81.83 81.82 81.83 81.83 81.82 81.81 81.81 81.82 81.83 81.83 81.82 81.83 81.80 81.79 81.79 81.83 81.82 15.21 14.79 14.51 14.30 14.19 14.04 14.06 13.99 13.96 13.98 14.05 14.12 14.28 14.42 14.65 14.96 15.52 81.83 81.83 81.80 81.83 81.81 81.83 81.83 81.82 81.83 81.81 81.82 81.82 81.83 81.83 81.82 81.82 81.83 81.83 81.83 81.81 81.83 81.83 81.81 81.82 81.83 81.82 81.82 81.81 81.83 81.82 81.83 81.83 81.83 81.81 81.83 81.83 81.83 81.83 81.83 81.83 81.80 81.83 81.78 81.81 81.82 81.83 81.83 81.81 81.83 81.83 81.82 81.83 81.83 81.83 81.82 81.80 81.83 81.82 81.83 81.80 81.83 81.82 81.78 81.83 81.81 81.83 81.79 81.83 81.82 81.82 81.82 81.83 81.82 81.81 81.83 81.81 81.82 81.83 81.83 81.83 81.83 81.83 81.81 81.82 81.83 81.83 81.80 81.83 81.82 81.83 81.83 44.544725 196.550000 0.088649 44.536568 196.544171 0.088649 976052866.500000 nohost 0.000000
ODOM 45.639556 196.669505 0.089110 0.000000 0.000000 0.000000 976052866.600000 nohost 0.000000
FLASER 180 81.82 81.81 81.80 81.83 81.81 81.83 81.83 81.83 81.83 81.83 81.81 81.83 81.82 81.80 81.82 81.81 81.82 81.83 81.81 81.83 81.83 81.82 81.83 81.83 81.83 81.79 81.82 81.82 81.83 81.83 81.79 81.83 81.82 81.80 81.83 81.83 81.83 81.83 81.81 81.82 81.82 81.83 81.83 81.83 81.83 81.83 81.82 81.81 81.83 81.80 81.82 81.83 81.83 81.81 81.79 81.83 81.83 81.83 81.81 81.80 81.82 81.82 81.83 81.82 81.82 81.83 81.83 81.83 81.80 81.81 81.78 15.82 15.10 14.74 14.49 14.34 14.17 14.13 14.03 14.04 14.07 14.05 14.14 14.26 14.38 14.57 14.78 15.20 16.01 81.83 81.83 81.83 81.80 81.83 81.83 81.79 81.83 81.83 81.83 81.82 81.82 81.83 81.83 81.81 81.82 81.83 81.83 81.83 81.81 81.83 81.83 81.80 81.83 81.83 81.83 81.82 81.83 81.83 81.82 81.81 81.83 81.83 81.80 81.81 81.81 81.80 81.83 81.83 81.83 81.83 81.83 81.80 81.81 81.82 81.82 81.82 81.83 81.83 81.83 81.81 81.83 81.82 81.83 81.82 81.82 81.82 81.83 81.82 81.81 81.82 81.83 81.83 81.79 81.79 81.83 81.82 81.82 81.83 81.83 81.83 81.83 81.83 81.83 81.82 81.83 81.83 81.82 81.83 81.79 81.83 81.83 81.82 81.83 81.83 81.83 81.83 81.83 81.83 81.83 81.81 45.646388 196.650000 0.089110 45.639556 196.669505 0.089110 976052866.600000 nohost 0.000000
ODOM 46.737259 196.742104 0.089453 0.000000 0.000000 0.000000 976052866.700000 nohost 0.000000
FLASER 180 81.83 81.82 81.83 81.83 81.83 81.83 81.80 81.80 81.81 81.83 81.83 81.81 81.83 81.83 81.83 81.83 81.83 81.83 81.83 81.83 81.83 81.81 81.81 81.83 81.83 81.83 81.83 81.83 81.83 81.83 81.82 81.81 81.83 81.83 81.76 81.82 81.83 81.83 81.83 81.81 81.83 81.82 81.83 81.82 81.83 81.83 81.82 81.81 81.83 81.83 81.82 81.83 81.83 81.80 81.83 81.76 81.83 81.83 81.83 81.81 81.79 81.83 81.83 81.83 81.83 81.83 81.83 81.83 81.83 81.83 81.83 15.52 15.02 14.71 14.49 14.34 14.21 14.16 14.08 14.06 14.10 14.15 14.22 14.31 14.48 14.68 14.96 15.48 81.83 81.83 81.83 81.82 81.83 81.83 81.82 81.83 81.83 81.82 81.83 81.82 81.83 81.81 81.83 81.82 81.83 81.79 81.83 81.83 81.83 81.83 81.83 81.83 81.82 81.83 81.83 81.83 81.82 81.81 81.83 81.79 81.80 81.83 81.82 81.83 81.83 81.82 81.83 81.80 81.81 81.83 81.83 81.83 81.83 81.81 81.83 81.83 81.83 81.83 81.80 81.83 81.82 81.83 81.78 81.83 81.83 81.82 81.83 81.82 81.83 81.81 81.81 81.82 81.81 81.83 81.80 81.83 81.79 81.79 81.83 81.81 81.83 81.80 81.80 81.82 81.83 81.81 81.83 81.83 81.83 81.83 81.83 81.82 81.82 81.78 81.83 81.83 81.78 81.81 81.78 81.83 46.748269 196.750000 0.089453 46.737259 196.742104 0.089453 976052866.700000 nohost 0.000000
ODOM 47.851408 196.865356 0.089696 0.000000 0.000000 0.000000 976052866.800000 nohost 0.000000
FLASER 180 81.83 81.83 81.83 81.83 81.79 81.83 81.79 81.83 81.83 81.83 81.83 81.83 81.83 81.81 81.83 81.83 81.83 81.82 81.82 81.83 81.83 81.82 81.79 81.83 81.83 81.83 81.83 81.81 81.82 81.83 81.83 81.83 81.80 81.82 81.83 81.83 81.83 81.83 81.83 81.82 81.81 81.83 81.83 81.81 81.83 81.82 81.83 81.82 81.82 81.83 81.82 81.83 81.83 81.83 81.80 81.83 81.79 81.83 81.83 81.83 81.83 81.82 81.82 81.79 81.78 81.82 81.83 81.83 81.83 81.80 81.81 15.39 14.98 14.67 14.51 14.37 14.24 14.19 14.15 14.10 14.19 14.23 14.29 14.43 14.59 14.84 15.23 15.81 81.80 81.83 81.82 81.83 81.83 81.80 81.82 81.82 81.80 81.83 81.82 81.80 81.83 81.79 81.82 81.83 81.82 81.80 81.83 81.81 81.83 81.79 81.83 81.83 81.83 81.83 81.82 81.83 81.83 81.83 81.81 81.81 81.81 81.79 81.81 81.83 81.82 81.82 81.79 81.82 81.83 81.82 81.83 81.83 81.83 81.83 81.83 81.83 81.82 81.83 81.82 81.83 81.83 81.83 81.81 81.81 81.83 81.83 81.83 81.83 81.83 81.81 81.83 81.82 81.80 81.83 81.83 81.83 81.83 81.83 81.83 81.83 81.82 81.77 81.82 81.83 81.83 81.79 81.81 81.83 81.83 81.83 81.83 81.83 81.82 81.82 81.83 81.83 81.83 81.83 81.79 81.83 47.850959 196.850000 0.089696 47.851408 196.865356 0.089696 976052866.800000 nohost 0.000000
ODOM 48.955191 196.938182 0.089817 0.000000 0.000000 0.000000 976052866.900000 nohost 0.000000
FLASER 180 81.82 81.83 81.83 81.80 81.81 81.78 81.83 81.83 81.83 81.83 81.83 81.83 81.83 81.83 81.83 81.83 81.81 81.81 81.83 81.83 81.81 81.83 81.83 81.83 81.82 81.83 81.83 81.83 81.83 81.83 81.83 81.83 81.83 81.81 81.81 81.83 81.82 81.83 81.83 81.81 81.83 81.82 81.82 81.83 81.83 81.83 81.83 81.83 81.81 81.83 81.83 81.79 81.81 81.83 81.81 81.83 81.83 81.83 81.81 81.83 81.82 81.82 81.83 81.83 81.83 81.83 81.82 81.80 81.83 81.80 16.01 15.25 14.92 14.71 14.50 14.34 14.30 14.21 14.21 14.20 14.22 14.30 14.36 14.52 14.75 14.98 15.38 81.81 81.83 81.81 81.83 81.83 81.81 81.81 81.79 81.83 81.83 81.82 81.83 81.82 81.83 81.83 81.83 81.82 81.81 81.80 81.82 81.83 81.80 81.82 81.80 81.83 81.81 81.81 81.83 81.81 81.81 81.83 81.83 81.81 81.79 81.82 81.82 81.83 81.78 81.83 81.83 81.81 81.83 81.81 81.80 81.82 81.82 81.83 81.82 81.83 81.80 81.83 81.80 81.83 81.81 81.83 81.82 81.82 81.83 81.83 81.81 81.83 81.81 81.80 81.80 81.83 81.83 81.83 81.83 81.80 81.81 81.83 81.80 81.82 81.79 81.83 81.83 81.83 81.82 81.81 81.80 81.83 81.83 81.83 81.83 81.83 81.83 81.80 81.82 81.83 81.82 81.83 81.83 81.82 48.956753 196.950000 0.089817 48.955191 196.938182 0.089817 976052866.900000 nohost 0.000000
ODOM 50.029376 197.045495 0.089995 0.000000 0.000000 0.000000 976052867.000000 nohost 0.000000
FLASER 180 81.82 81.83 81.83 81.83 81.82 81.80 81.81 81.82 81.83 81.82 81.83 81.83 81.83 81.83 81.82 81.82 81.82 81.81 81.83 81.83 81.81 81.83 81.81 81.83 81.83 81.82 81.83 81.83 81.82 81.83 81.83 81.82 81.83 81.83 81.83 81.82 81.81 81.82 81.82 81.83 81.77 81.83 81.81 81.80 81.80 81.82 81.81 81.83 81.83 81.83 81.83 81.83 81.78 81.83 81.81 81.82 81.81 81.83 81.80 81.83 81.81 81.83 81.81 81.79 81.80 81.83 81.83 81.83 81.83 81.83 15.75 15.22 14.87 14.69 14.50 14.36 14.32 14.25 14.25 14.23 14.29 14.39 14.49 14.66 14.84 15.16 15.66 81.83 81.82 81.83 81.83 81.80 81.80 81.83 81.83 81.83 81.83 81.79 81.83 81.83 81.83 81.83 81.83 81.83 81.80 81.83 81.81 81.81 81.82 81.83 81.83 81.82 81.82 81.82 81.81 81.80 81.83 81.83 81.83 81.83 81.83 81.83 81.82 81.83 81.83 81.83 81.82 81.81 81.81 81.82 81.83 81.80 81.83 81.83 81.83 81.83 81.83 81.83 81.83 81.83 81.80 81.82 81.83 81.83 81.81 81.82 81.83 81.83 81.80 81.83 81.82 81.83 81.83 81.83 81.83 81.80 81.83 81.83 81.83 81.83 81.82 81.83 81.83 81.83 81.79 81.83 81.83 81.82 81.83 81.82 81.82 81.82 81.82 81.82 81.81 81.83 81.83 81.83 81.83 81.81 50.058238 197.050000 0.089995 50.029376 197.045495 0.089995 976052867.000000 nohost 0.000000
ODOM 51.163192 197.135871 0.090253 0.000000 0.000000 0.000000 976052867.100000 nohost 0.000000
FLASER 180 81.81 81.83 81.83 81.83 81.82 81.83 81.83 81.83 81.83 81.82 81.83 81.82 81.83 81.82 81.83 81.82 81.83 81.83 81.82 81.83 81.83 81.82 81.82 81.83 81.83 81.83 81.81 81.80 81.83 81.83 81.79 81.83 81.81 81.83 81.82 81.83 81.83 81.83 81.81 81.83 81.81 81.81 81.83 81.83 81.82 81.83 81.83 81.83 81.83 81.79 81.83 81.83 81.83 81.82 81.83 81.83 81.83 81.83 81.80 81.83 81.83 81.83 81.83 81.83 81.83 81.81 81.83 81.83 81.83 81.83 15.63 15.16 14.88 14.64 14.54 14.42 14.35 14.31 14.29 14.34 14.36 14.47 14.60 14.77 15.00 15.32 16.04 81.83 81.83 81.83 81.83 81.83 81.80 81.82 81.83 81.83 81.83 81.83 81.83 81.83 81.83 81.83 81.83 81.83 81.83 81.80 81.83 81.83 81.83 81.83 81.83 81.79 81.83 81.82 81.83 81.82 81.83 81.83 81.83 81.82 81.79 81.81 81.83 81.82 81.83 81.83 81.83 81.83 81.83 81.81 81.80 81.82 81.83 81.83 81.83 81.83 81.83 81.83 81.83 81.81 81.82 81.83 81.83 81.81 81.83 81.83 81.81 81.82 81.79 81.80 81.83 81.82 81.82 81.83 81.81 81.83 81.83 81.83 81.83 81.83 81.83 81.82 81.83 81.83 81.83 81.82 81.83 81.83 81.83 81.82 81.83 81.81 81.83 81.80 81.82 81.83 81.83 81.83 81.83 81.82 51.153449 197.150000 0.090253 51.163192 197.135871 0.090253 976052867.100000 nohost 0.000000
ODOM 52.269821 197.245145 0.090319 0.000000 0.000000 0.000000 976052867.200000 nohost 0.000000
